city,lat,lng,iso2,admin_name
Malisheve,42.4822,20.7458,XK,Malishevë
Prizren,42.2139,20.7397,XK,Prizren
Zubin Potok,42.9144,20.6897,XK,Zubin Potok
Kamenice,42.5781,21.5803,XK,Kamenicë
Viti,42.3214,21.3583,XK,Viti
Shterpce,42.2394,21.0272,XK,Shtërpcë
Shtime,42.4331,21.0397,XK,Shtime
Vushtrri,42.8231,20.9675,XK,Vushtrri
Dragash,42.0265,20.6533,XK,Dragash
Podujeve,42.9111,21.1899,XK,Podujevë
Fushe Kosove,42.6639,21.0961,XK,Fushë Kosovë
Kacanik,42.2319,21.2594,XK,Kaçanik
Kline,42.6217,20.5778,XK,Klinë
Leposaviq,43.1039,20.8028,XK,Leposaviq
Peje,42.66,20.2922,XK,Pejë
Rahovec,42.3994,20.6547,XK,Rahovec
Gjilan,42.4689,21.4633,XK,Gjilan
Lipjan,42.5217,21.1258,XK,Lipjan
Obiliq,42.6869,21.0703,XK,Obiliq
Gjakove,42.3803,20.4308,XK,Gjakovë
Pristina,42.6666,21.1724,XK,Prishtinë
Decan,42.5378,20.2911,XK,Deçan
Istog,42.7808,20.4875,XK,Istog
Hani i Elezit,42.15,21.2967,XK,Hani i Elezit
Junik,42.4758,20.2772,XK,Junik
Kllokot,42.3714,21.3744,XK,Kllokot
Mamushe,42.3308,20.7269,XK,Mamushë
Partesh,42.4019,21.4336,XK,Partesh
Ranillug,42.4922,21.5989,XK,Ranillug
Ferizaj,42.3706,21.1553,XK,Ferizaj
Zvecan,42.9075,20.8403,XK,Zveçan
Suhareke,42.3586,20.825,XK,Suharekë
Gllogovc,42.6283,20.8939,XK,Gllogovc
Mitrovice,42.8833,20.8667,XK,
Skenderaj,42.7467,20.7886,XK,Skenderaj 
Novoberde,42.6178,21.4197,XK,Novobërdë
Gracanice,42.6011,21.1958,XK,Graçanicë
Longyearbyen,78.2167,15.6333,XR,
Sanaa,15.3547,44.2066,YE,Amānat al ‘Āşimah
Marib,15.421,45.334,YE,Ma’rib
Al Jabin,14.704,43.599,YE,Raymah
Hajjah,15.6917,43.6021,YE,Ḩajjah
Ibb,13.9759,44.1709,YE,Ibb
Al Hudaydah,14.7979,42.953,YE,Al Ḩudaydah
Lahij,13.0582,44.8838,YE,Laḩij
Al Mahwit,15.4701,43.5448,YE,Al Maḩwīt
Taizz,13.6045,44.0394,YE,Ta‘izz
Sadah,16.9398,43.8498,YE,Şa‘dah
Dhamar,14.5575,44.3875,YE,Dhamār
`Amran,15.6594,43.9439,YE,‘Amrān
Ad Dali`,13.6957,44.7314,YE,Aḑ Ḑāli‘
Saywun,15.943,48.7873,YE,Ḩaḑramawt
Al Bayda,13.979,45.574,YE,Al Bayḑā’
Zinjibar,13.1287,45.3807,YE,Abyan
Rida,14.4295,44.8341,YE,Al Bayḑā’
'Ataq,14.55,46.8,YE,Shabwah
Al Ghaydah,16.2394,52.1638,YE,Al Mahrah
Sayhut,15.2105,51.2454,YE,Al Mahrah
Al Mukalla,14.5412,49.1259,YE,Ḩaḑramawt
Al Hazm,16.1641,44.7769,YE,Al Jawf
Zabid,14.1951,43.3155,YE,Al Ḩudaydah
Aden,12.7797,45.0095,YE,‘Adan
Hadiboh,12.6519,54.0239,YE,Arkhabīl Suquţrá
Ash Shihr,14.7593,49.6092,YE,Ḩaḑramawt
Dzaoudzi,-12.7871,45.275,YT,
Pretoria,-25.7069,28.2294,ZA,Gauteng
Lebowakgomo,-24.1996,29.5,ZA,Limpopo
Potchefstroom,-26.6996,27.1,ZA,North West
Graaff Reinet,-32.3,24.54,ZA,Eastern Cape
Rustenburg,-25.65,27.24,ZA,North West
Brandfort,-28.6996,26.47,ZA,Free State
Vryheid,-27.76,30.79,ZA,KwaZulu-Natal
Vereeniging,-26.6496,27.96,ZA,Gauteng
Brits,-25.6296,27.78,ZA,North West
Bethlehem,-28.2196,28.3,ZA,Free State
Ubomba,-27.5661,32.0833,ZA,KwaZulu-Natal
Polokwane,-23.89,29.45,ZA,Limpopo
Springbok,-29.6667,17.8833,ZA,Northern Cape
Thohoyandou,-22.95,30.48,ZA,Limpopo
Pietermaritzburg,-29.61,30.39,ZA,KwaZulu-Natal
Poffader,-29.1329,19.3834,ZA,Northern Cape
Carnarvon,-30.9496,22.1333,ZA,Northern Cape
Kroonstad,-27.66,27.21,ZA,Free State
Alexander Bay,-28.6083,16.5033,ZA,Northern Cape
Bloemhof,-27.6496,25.59,ZA,North West
Hermanus,-34.4096,19.2299,ZA,Western Cape
Bethal,-26.4696,29.45,ZA,Mpumalanga
Upington,-28.46,21.23,ZA,Northern Cape
Tzaneen,-23.8195,30.17,ZA,Limpopo
Vanhynsdorp,-31.6166,18.7333,ZA,Western Cape
Musina,-22.34,30.03,ZA,Limpopo
Kimberley,-28.7468,24.77,ZA,Northern Cape
Durban,-29.865,30.98,ZA,KwaZulu-Natal
Klerksdorp,-26.88,26.62,ZA,North West
Welkom,-27.97,26.73,ZA,Free State
De Aar,-30.65,24,ZA,Northern Cape
Prieska,-29.6595,22.73,ZA,Northern Cape
Saldanha,-33.01,17.93,ZA,Western Cape
Middelburg,-31.5,25.01,ZA,Eastern Cape
Port St. Johns,-31.6279,29.5283,ZA,Eastern Cape
Volksrust,-27.3596,29.89,ZA,Mpumalanga
Ulundi,-28.3296,31.41,ZA,KwaZulu-Natal
Beaufort West,-32.3496,22.57,ZA,Western Cape
Komatipoort,-25.4096,31.94,ZA,Mpumalanga
Nelspruit,-25.4745,30.9703,ZA,Mpumalanga
Standerton,-26.9395,29.24,ZA,Mpumalanga
Johannesburg,-26.17,28.03,ZA,Gauteng
Kuruman,-27.4496,23.42,ZA,Northern Cape
Paarl,-33.6996,18.96,ZA,Western Cape
Worcester,-33.64,19.4399,ZA,Western Cape
Colesberg,-30.7195,25.1,ZA,Northern Cape
Umtata,-31.58,28.79,ZA,Eastern Cape
Aliwal North,-30.6896,26.71,ZA,Eastern Cape
Middelburg,-25.7596,29.47,ZA,Mpumalanga
Springs,-26.2696,28.43,ZA,Gauteng
Benoni,-26.1496,28.3299,ZA,Gauteng
Port Shepstone,-30.7195,30.46,ZA,KwaZulu-Natal
Oudtshoorn,-33.58,22.19,ZA,Western Cape
Port Elizabeth,-33.97,25.6,ZA,Eastern Cape
Port Alfred,-33.5995,26.88,ZA,Eastern Cape
East London,-32.97,27.87,ZA,Eastern Cape
Mossel Bay,-34.17,22.13,ZA,Western Cape
Vryburg,-26.96,24.73,ZA,North West
Uitenhage,-33.7596,25.39,ZA,Eastern Cape
Bhisho,-32.87,27.39,ZA,Eastern Cape
Knysna,-34.0329,23.0333,ZA,Western Cape
Queenstown,-31.8996,26.88,ZA,Eastern Cape
Cradock,-32.1995,25.61,ZA,Eastern Cape
Bredasdorp,-34.5295,20.03,ZA,Western Cape
Swellendam,-34.0196,20.43,ZA,Western Cape
Ladysmith,-28.5495,29.78,ZA,KwaZulu-Natal
George,-33.95,22.45,ZA,Western Cape
Grahamstown,-33.2996,26.52,ZA,Eastern Cape
Mmabatho,-25.83,25.61,ZA,North West
Mahikeng,-25.8652,25.6442,ZA,North West
Bloemfontein,-29.12,26.2299,ZA,Free State
Cape Town,-33.92,18.435,ZA,Western Cape
Zambezi,-13.54,23.1099,ZM,North-Western
Solwezi,-12.1796,26.4,ZM,North-Western
Lusaka,-15.4166,28.2833,ZM,Lusaka
Kaoma,-14.7796,24.8,ZM,Western
Chipata,-13.6296,32.64,ZM,Eastern
Senanga,-16.1196,23.27,ZM,Western
Sesheke,-17.4695,24.3,ZM,Western
Chililabombwe,-12.3696,27.82,ZM,Copperbelt
Chingola,-12.5396,27.85,ZM,Copperbelt
Kasempa,-13.4596,25.82,ZM,North-Western
Kitwe,-12.81,28.22,ZM,Copperbelt
Mufulira,-12.55,28.26,ZM,Copperbelt
Nchelenge,-9.3496,28.73,ZM,Luapula
Mazabuka,-15.86,27.76,ZM,Southern
Lukulu,-14.3896,23.24,ZM,Western
Kafue,-15.78,28.18,ZM,Lusaka
Lundazi,-12.2895,33.17,ZM,Eastern
Mansa,-11.2,28.89,ZM,Luapula
Mwinilunga,-11.7396,24.44,ZM,North-Western
Mumbwa,-14.9796,27.07,ZM,Central
Kalabo,-14.9896,22.68,ZM,Western
Nyimba,-14.5495,30.81,ZM,Eastern
Kapiri Mposhi,-13.9696,28.66,ZM,Central
Kabwe,-14.44,28.45,ZM,Central
Ndola,-12.9999,28.65,ZM,Copperbelt
Kasama,-10.1996,31.1799,ZM,Northern
Mbala,-8.84,31.37,ZM,Northern
Kawambwa,-9.7795,29.08,ZM,Luapula
Luanshya,-13.1333,28.4,ZM,Copperbelt
Mongu,-15.2796,23.12,ZM,Western
Mpika,-11.83,31.46,ZM,Muchinga
Chinsali,-10.5496,32.06,ZM,Muchinga
Livingstone,-17.86,25.86,ZM,Southern
Choma,-16.8095,26.97,ZM,Southern
Plumtree,-20.4795,27.82,ZW,
Kariba,-16.5296,28.8,ZW,
Hwange,-18.37,26.5,ZW,
Chiredzi,-21.0496,31.66,ZW,
Mazowe,-17.5196,30.97,ZW,Mashonaland Central
Zvishavane,-20.3296,30.05,ZW,Masvingo
Shamva,-17.3196,31.57,ZW,Mashonaland Central
Harare,-17.8178,31.0447,ZW,Harare
Kwekwe,-18.9296,29.8,ZW,Midlands
Kadoma,-18.33,29.9099,ZW,Mashonaland West
Gwanda,-20.9396,29.01,ZW,Matabeleland South
Chinhoyi,-17.3596,30.18,ZW,
Beitbridge,-22.2096,29.99,ZW,
Mutare,-18.97,32.65,ZW,Manicaland
Gweru,-19.45,29.82,ZW,
Karoi,-16.8196,29.68,ZW,Mashonaland West
Masvingo,-20.0596,30.82,ZW,Masvingo
Bulawayo,-20.17,28.58,ZW,Bulawayo
Victoria Falls,-17.9296,25.84,ZW,Matabeleland North
Chitungwiza,-18,31.1,ZW,Harare
Maqat,47.6482,53.3265,KZ,Atyraū
Zhangaozen,43.3004,52.8,KZ,Mangghystaū
Taraz,42.9,71.365,KZ,Zhambyl
Shymkent,42.32,69.595,KZ,Ongtüstik Qazaqstan
Oral,51.2711,51.335,KZ,Batys Qazaqstan
Balqash,46.8532,74.9502,KZ,Qaraghandy
Zaysan,47.4752,84.8598,KZ,Shyghys Qazaqstan
Oytal,42.9153,73.2549,KZ,Zhambyl
Zholymbet,51.7502,71.7099,KZ,Aqmola
Serebryansk,49.6999,83.4249,KZ,Shyghys Qazaqstan
Chapaev,50.1915,51.1449,KZ,Batys Qazaqstan
Ridder,50.3554,83.5149,KZ,Shyghys Qazaqstan
Zhaltyr,51.6324,69.8328,KZ,Aqmola
Atbasar,51.8219,68.3477,KZ,Aqmola
Aqsay,51.1714,53.0349,KZ,Batys Qazaqstan
Shemonaikha,50.6316,81.905,KZ,Shyghys Qazaqstan
Atasu,48.6903,71.6499,KZ,Qaraghandy
Rudny,52.9527,63.13,KZ,Qostanay
Makhambet,47.6714,51.5798,KZ,Atyraū
Fort Shevchenko,44.5171,50.2666,KZ,Mangghystaū
Qusmuryn,52.458,64.6,KZ,Qostanay
Oktyabrsk,49.4731,57.4449,KZ,Aqtöbe
Khromtau,50.2699,58.45,KZ,Aqtöbe
Algha,49.9032,57.335,KZ,Aqtöbe
Embi,48.8268,58.1442,KZ,Aqtöbe
Ushtobe,45.2653,77.97,KZ,Almaty
Burylbaytal,44.9387,74.0303,KZ,Zhambyl
Zhanibek,49.4276,46.8772,KZ,Batys Qazaqstan
Esil,51.957,66.3775,KZ,Aqmola
Derzhavinsk,51.1021,66.3075,KZ,Aqmola
Saryshaghan,46.1195,73.6191,KZ,Qaraghandy
Turgay,49.626,63.499,KZ,Qostanay
Sarqan,45.4203,79.9149,KZ,Almaty
Arqalyq,50.2418,66.8976,KZ,Qostanay
Shalqar,47.8363,59.6141,KZ,Aqtöbe
Shieli,44.167,66.75,KZ,Qyzylorda
Bayghanin,48.6917,55.874,KZ,Aqtöbe
Zhezqazghan,47.78,67.77,KZ,Qaraghandy
Mangyshlak,43.6905,51.1417,KZ,Mangghystaū
Zhosaly,45.4877,64.078,KZ,Qyzylorda
Beyneu,45.1834,55.1,KZ,Mangghystaū
Qazaly,45.7628,62.1075,KZ,Qyzylorda
Aral,46.8,61.6666,KZ,Qyzylorda
Ayakoz,47.9647,80.4297,KZ,Shyghys Qazaqstan
Urzhar,47.1002,81.6048,KZ,Shyghys Qazaqstan
Qapshaghay,43.8844,77.0687,KZ,Almaty
Esik,43.3691,77.4438,KZ,Almaty
Turkistan,43.3016,68.2549,KZ,Ongtüstik Qazaqstan
Qaratau,43.1854,70.46,KZ,Zhambyl
Sharbaqty,52.4999,78.1499,KZ,Pavlodar
Oostanay,53.2209,63.6283,KZ,Qostanay
Kachiry,53.0804,76.09,KZ,Pavlodar
Kishkenekol,53.6368,72.3414,KZ,Soltüstik Qazaqstan
Bulaevo,54.9053,70.44,KZ,Soltüstik Qazaqstan
Shonzhy,43.5421,79.4703,KZ,Almaty
Qyzylorda,44.8,65.465,KZ,Qyzylorda
Qaraghandy,49.885,73.115,KZ,Qaraghandy
Ertis,53.3453,75.4499,KZ,Pavlodar
Tayynsha,53.8481,69.7638,KZ,Soltüstik Qazaqstan
Qulan,42.9204,72.705,KZ,Zhambyl
Shu,43.5953,73.7448,KZ,Zhambyl
Kentau,43.5165,68.5199,KZ,Ongtüstik Qazaqstan
Oskemen,49.99,82.6149,KZ,Shyghys Qazaqstan
Aqtau,43.6232,51.2365,KZ,Mangghystaū
Taldyqorghan,45,78.4,KZ,Almaty
Astana,51.1811,71.4278,KZ,Astana
Aqtobe,50.28,57.17,KZ,Aqtöbe
Kokshetau,53.3,69.42,KZ,Aqmola
Petropavlovsk,54.88,69.22,KZ,Soltüstik Qazaqstan
Pavlodar,52.3,76.95,KZ,Pavlodar
Otar,43.5346,75.2139,KZ,Zhambyl
Almaty,43.325,76.915,KZ,Almaty
Bestobe,52.4997,73.0997,KZ,Aqmola
Arys,42.4369,68.8048,KZ,Ongtüstik Qazaqstan
Lenger,42.1899,69.8799,KZ,Ongtüstik Qazaqstan
Aqsu,52.4502,71.9597,KZ,Aqmola
Temirtau,50.065,72.965,KZ,Qaraghandy
Makinsk,52.6404,70.41,KZ,Aqmola
Osakarovka,50.5799,72.5699,KZ,Qaraghandy
Qarqaraly,49.4249,75.4649,KZ,Qaraghandy
Ekibastuz,51.73,75.3199,KZ,Pavlodar
Zyryanovsk,49.7453,84.2548,KZ,Shyghys Qazaqstan
Komsomolets,53.7506,62.0502,KZ,Qostanay
Baykonur,45.6914,63.2413,KZ,Qyzylorda
Erymentau,51.6303,73.1049,KZ,Aqmola
Qarazhal,48.0253,70.7999,KZ,Qaraghandy
Tobol,52.698,62.5749,KZ,Qostanay
Shar,49.6003,81.0549,KZ,Shyghys Qazaqstan
Semey,50.435,80.275,KZ,Shyghys Qazaqstan
Boralday,43.3341,76.8288,KZ,Almaty
Zhetiqara,52.193,61.2399,KZ,Qostanay
Aqadyr,48.2749,72.8599,KZ,Qaraghandy
Zharkent,44.1616,79.9801,KZ,Almaty
Qulsary,46.9833,54.0165,KZ,Atyraū
Balyqshy,47.0666,51.8666,KZ,Atyraū
Atyrau,47.1127,51.92,KZ,Atyraū
Xiangkhoang,19.3337,103.3666,LA,Xiangkhouang
Muang Phonsavan,19.45,103.2167,LA,Xiangkhouang
Vientiane,17.9667,102.6,LA,Viangchan
Ban Houayxay,20.2775,100.4128,LA,Bokèo
Muang Phon-Hong,18.4957,102.4142,LA,Viangchan
Louang Namtha,20.95,101.4167,LA,Louangnamtha
Phongsali,21.6833,102.1,LA,Phôngsali
Thakhek,17.4112,104.8361,LA,Khammouan
Muang Pakxan,18.3826,103.6586,LA,Bolikhamxai
Louangphrabang,19.8845,102.1416,LA,Louangphabang
Xaignabouri,19.2505,101.7501,LA,Xaignabouli
Savannakhet,16.5376,104.773,LA,Savannakhét
Lamam,15.4171,106.6946,LA,Xékong
Pakxe,15.1221,105.8183,LA,Champasak
Attapu,14.808,106.839,LA,Attapu
Xam Nua,20.4167,104.0333,LA,Houaphan
Muang Xai,20.6923,101.9847,LA,Oudômxai
Saravan,15.716,106.427,LA,Salavan
Champasak,14.8833,105.8667,LA,Champasak
Beirut,33.872,35.5097,LB,Beyrouth
Zahle,33.8501,35.9042,LB,Béqaa
Baalbek,34.0058,36.2181,LB,Baalbek-Hermel
B'abda,33.8333,35.5333,LB,Mont-Liban
Halba,34.5428,36.0797,LB,Aakkâr
Saida,33.563,35.3688,LB,Liban-Sud
Nabatiye et Tahta,33.3833,35.45,LB,Nabatîyé
Trablous,34.42,35.87,LB,Liban-Nord
Castries,14.002,-61,LC,Castries
Gamprin,47.2197,9.5113,LI,Gamprin
Triesenberg,47.1182,9.5444,LI,Triesenberg
Schaan,47.1661,9.5096,LI,Schaan
Ruggell,47.2408,9.5247,LI,Ruggell
Mauren,47.2205,9.5426,LI,Mauren
Eschen,47.2109,9.5216,LI,Eschen
Triesen,47.1101,9.524,LI,Triesen
Balzers,47.0667,9.5025,LI,Balzers
Vaduz,47.1337,9.5167,LI,Vaduz
Planken,47.1844,9.5436,LI,Planken
Schellenberg,47.2325,9.5463,LI,Schellenberg
Colombo,6.932,79.8578,LK,Western
Ratnapura,6.693,80.386,LK,Sabaragamuwa
Matara,5.949,80.5428,LK,Southern
Sri Jawewardenepura Kotte,6.9,79.95,LK,Western
Moratuwa,6.7804,79.88,LK,Western
Anuradhapura,8.35,80.3833,LK,North Central
Galle,6.03,80.24,LK,Southern
Puttalan,8.033,79.826,LK,North Western
Kandy,7.28,80.67,LK,Central
Badulla,6.9837,81.0499,LK,Uva
Trincomalee,8.569,81.233,LK,Eastern
Kilinochchi,9.4004,80.3999,LK,Northern
Batticaloa,7.717,81.7,LK,Eastern
Jaffna,9.675,80.005,LK,Northern
Bopolu,7.0667,-10.4875,LR,Gbarpolu
Voinjama,8.4167,-9.75,LR,Lofa
Robertsport,6.7533,-11.3686,LR,Grand Cape Mount
Buchanan,5.9161,-10.0525,LR,Grand Bassa
Monrovia,6.3106,-10.8048,LR,Montserrado
Tubmanburg,6.8706,-10.8211,LR,Bomi
Buchanan,5.8811,-10.0447,LR,Grand Bassa
Zwedru,6.0704,-8.13,LR,Grand Gedeh
Barclayville,4.8,-8.1667,LR,Grand Kru
Rivercess,5.465,-9.578,LR,River Cess
Fish Town,5.1974,-7.8758,LR,River Gee
Gbarnga,7.0104,-9.49,LR,Bong
Kakata,6.526,-10.349,LR,Margibi
Sanniquellie,7.371,-8.685,LR,Nimba
Greenville,5.0111,-9.0388,LR,Sinoe
Bensonville,6.4333,-10.6,LR,Montserrado
Harper,4.3754,-7.717,LR,Maryland
Maseru,-29.3167,27.4833,LS,Maseru
Mokhotlong,-29.291,29.078,LS,Mokhotlong
Thaba-Tseka,-29.522,28.6084,LS,Thaba-Tseka
Moyeni,-30.411,27.716,LS,Quthing
Qacha's Nek,-30.1154,28.6894,LS,Qacha’s Nek
Mafetang,-29.8166,27.25,LS,Mafeteng
Hlotse,-28.878,28.056,LS,Leribe
Teyateyaneng,-29.153,27.753,LS,Berea
Mohales Hoek,-30.159,27.48,LS,Mohale’s Hoek
Butha-Buthe,-28.75,28.25,LS,Butha-Buthe
Klaipeda,55.7204,21.1199,LT,Klaipėdos Miestas
Palanga,55.9203,21.071,LT,Palangos Miestas
Nida,55.3086,20.9965,LT,Neringa
Kretinga,55.8888,21.2445,LT,Kretinga
Taurage,55.2522,22.2897,LT,Tauragė
Silute,55.3453,21.4733,LT,Šilutė
Rietavas,55.7271,21.9234,LT,Rietavo
Plunge,55.9077,21.8456,LT,Plungė
Silale,55.4898,22.1869,LT,Šilalė
Visaginas,55.5968,26.4398,LT,Visaginas
Zarasai,55.7322,26.2512,LT,Zarasai
Ignalina,55.3406,26.1605,LT,Ignalina
Utena,55.4976,25.5992,LT,Utena
Svencionys,55.133,26.1595,LT,Švenčionys
Rokiskis,55.9587,25.5947,LT,Rokiškis
Moletai,55.2247,25.4169,LT,Molėtai
Salcininkai,54.3086,25.3868,LT,Šalčininkai
Vilnius,54.6834,25.3166,LT,Vilniaus Miestas
Kupiskis,55.8401,24.9803,LT,Kupiškis
Trakai,54.6399,24.936,LT,Trakai
Birzai,56.1986,24.7521,LT,Biržai
Anyksciai,55.5246,25.1066,LT,Anykščiai
Telsiai,55.9831,22.2343,LT,Telšiai
Kelme,55.6301,22.9349,LT,Kelmė
Marijampole,54.5599,23.3541,LT,Marijampolė
Lazdijai,54.2333,23.5147,LT,Lazdijai
Sakiai,54.9534,23.0478,LT,Šakiai
Radviliskis,55.8111,23.5411,LT,Radviliškis
Siauliai,55.9386,23.325,LT,Šiaulių Miestas
Birstonas,54.6048,24.0311,LT,Birštono
Druskininkai,54.0157,23.987,LT,Druskininkai
Kedainiai,55.2878,23.9727,LT,Kėdainiai
Alytus,54.3964,24.0414,LT,Alytaus Miestas
Prienai,54.636,23.9458,LT,Prienai
Elektrenai,54.7863,24.6626,LT,Elektrénai
Kaunas,54.9504,23.88,LT,Kauno Miestas
Jonava,55.0801,24.2754,LT,Jonava
Kaisiadorys,54.8653,24.4682,LT,Kaišiadorys
Panevezys,55.74,24.37,LT,Panevėžio Miestas
Joniskis,56.2394,23.6154,LT,Joniškis
Kazlu Ruda,54.7497,23.495,LT,Kazlų Rūdos
Vilkaviskis,54.648,23.0305,LT,Vilkaviškis
Pasvalys,56.0625,24.3997,LT,Pasvalys
Pakruojis,55.9789,23.8551,LT,Pakruojis
Raseiniai,55.3797,23.1239,LT,Raseiniai
Pagegiai,55.1379,21.9138,LT,Pagégiai
Jurbarkas,55.0756,22.7642,LT,Jurbarkas
Kalvarija,54.4172,23.2283,LT,Kalvarijos
Sirvintos,55.044,24.9545,LT,Širvintos
Skuodas,56.2706,21.5321,LT,Skuodas
Mazeikiai,56.3122,22.3265,LT,Mažeikiai
Akmene,56.25,22.75,LT,Akmenė
Ukmerge,55.2494,24.7636,LT,Ukmergė
Varena,54.2155,24.5754,LT,Varėna
Capellen,49.645,5.9908,LU,Capellen
Esch-sur-Alzette,49.4958,5.9806,LU,Esch-sur-Alzette
Remich,49.545,6.3669,LU,Remich
Echternach,49.8056,6.4222,LU,Echternach
Mersch,49.7489,6.1061,LU,Mersch
Redange-sur-Attert,49.7656,5.8908,LU,Redange
Vianden,49.935,6.2089,LU,Vianden
Wiltz,49.9689,5.9319,LU,Wiltz
Clervaux,50.0547,6.0314,LU,Clervaux
Diekirch,49.8833,6.1667,LU,Diekirch
Grevenmacher,49.7,6.3333,LU,Grevenmacher
Luxembourg,49.6117,6.13,LU,Luxembourg
Skrunda,56.6833,22.0167,LV,Skrundas Novads
Daugavpils,55.88,26.51,LV,Daugavpils Novads
Jekabpils,56.4833,25.85,LV,Jēkabpils Novads
Aglona,56.1333,27.0167,LV,Aglonas Novads
Lielvarde,56.7225,24.805,LV,Lielvārdes Novads
Saldus,56.6667,22.5,LV,Saldus Novads
Ozolnieki,56.6864,23.7878,LV,Ozolnieku Novads
Broceni,56.7,22.5333,LV,Brocēnu Novads
Jelgava,56.6527,23.7128,LV,Jelgavas Novads
Pilsrundale,56.4167,24,LV,Rundāles Novads
Dobele,56.625,23.2786,LV,Dobeles Novads
Iecava,56.5986,24.2022,LV,Iecavas Novads
Jaunpils,56.7325,23.0136,LV,Jaunpils Novads
Auce,56.4667,22.8833,LV,Auces Novads
Tukums,56.9669,23.1553,LV,Tukuma Novads
Tervete,56.4781,23.3867,LV,Tērvetes Novads
Salacgriva,57.7531,24.359,LV,Salacgrīvas Novads
Ventspils,57.3899,21.5606,LV,Ventspils
Dundaga,57.505,22.3504,LV,Dundagas Novads
Jaunjelgava,56.6132,25.0832,LV,Jaunjelgavas Novads
Nereta,56.2044,25.3077,LV,Neretas Novads
Alsunga,56.9801,21.564,LV,Alsungas Novads
Kuldiga,56.969,21.968,LV,Kuldīgas Novads
Pavilosta,56.8898,21.1817,LV,Pāvilostas Novads
Pinki,56.9419,23.9137,LV,Babītes Novads
Adazi,57.0705,24.3371,LV,Ādažu Novads
Kandava,57.0389,22.7724,LV,Kandavas Novads
Roja,57.5015,22.8088,LV,Rojas Novads
Carnikava,57.1293,24.2842,LV,Carnikavas Novads
Garkalne,57.0449,24.4195,LV,Garkalnes Novads
Saulkrasti,57.2599,24.4189,LV,Saulkrastu Novads
Smarde,56.9533,23.3387,LV,Engures Novads
Mersrags,57.3364,23.1235,LV,Mērsraga Novads
Talsi,57.2465,22.5876,LV,Talsu Novads
Jurmala,56.9567,23.7233,LV,Jūrmala
Marupe,56.9032,24.0467,LV,Mārupes Novads
Ulbroka,56.9363,24.3039,LV,Stopiņu Novads
Zilupe,56.386,28.1218,LV,Zilupes Novads
Ludza,56.5396,27.7189,LV,Ludzas Novads
Dagda,56.0961,27.5328,LV,Dagdas Novads
Baltinava,56.9439,27.644,LV,Baltinavas Novads
Cibla,56.5498,27.8837,LV,Ciblas Novads
Karsava,56.7874,27.6732,LV,Kārsavas Novads
Riga,56.95,24.1,LV,Rīga
Kraslava,55.8969,27.172,LV,Krāslavas Novads
Limbazi,57.513,24.724,LV,Limbažu Novads
Preili,56.294,26.7248,LV,Preiļu Novads
Vecvarkava,56.1984,26.5081,LV,Vārkavas Novads
Ilukste,55.9779,26.2978,LV,Ilūkstes Novads
Nica,56.3456,21.0646,LV,Nīcas Novads
Bauska,56.4079,24.1944,LV,Bauskas Novads
Vilaka,57.1843,27.6719,LV,Viļakas Novads
Livani,56.3567,26.1761,LV,Līvānu Novads
Aluksne,57.4216,27.0466,LV,Alūksnes Novads
Rezekne,56.5,27.3166,LV,Rēzekne
Rugaji,57.0033,27.1337,LV,Rugāju Novads
Riebini,56.3403,26.7999,LV,Riebiņu Novads
Vilani,56.5505,26.9298,LV,Viļānu Novads
Varaklani,56.6091,26.7547,LV,Varakļānu Novads
Ape,57.5394,26.694,LV,Apes Novads
Madona,56.851,26.2184,LV,Madonas Novads
Jaunpiebalga,57.1775,26.0284,LV,Jaunpiebalgas Novads
Lubana,56.9043,26.7161,LV,Lubānas Novads
Gulbene,57.1734,26.7527,LV,Gulbenes Novads
Balvi,57.1287,27.27,LV,Balvu Novads
Akniste,56.1615,25.7482,LV,Aknīstes Novads
Viesite,56.3465,25.5581,LV,Viesītes Novads
Cesvaine,56.9675,26.3076,LV,Cesvaines Novads
Kegums,56.7455,24.725,LV,Ķeguma Novads
Vecpiebalga,57.0618,25.8179,LV,Vecpiebalgas Novads
Smiltene,57.4242,25.9017,LV,Smiltenes Novads
Drabesi,57.2433,25.2803,LV,Amatas Novads
Cesis,57.3091,25.2761,LV,Cēsu Novads
Ergli,56.8988,25.6429,LV,Ērgļu Novads
Valka,57.7767,26.0118,LV,Valkas Novads
Grobina,56.5358,21.1747,LV,Grobiņas Novads
Strenci,57.6269,25.6919,LV,Strenču Novads
Murmuiza,57.4731,25.4917,LV,Beverīnas Novads
Mazsalaca,57.8619,25.0547,LV,Mazsalacas Novads
Aloja,57.7672,24.8774,LV,Alojas Novads
Burtnieki,57.6949,25.275,LV,Burtnieku Novads
Koknese,56.6516,25.4364,LV,Kokneses Novads
Aizkraukle,56.6029,25.2636,LV,Aizkraukles Novads
Skriveri,56.6485,25.1195,LV,Skrīveru Novads
Baldone,56.7445,24.4008,LV,Baldones Novads
Vecumnieki,56.6061,24.5223,LV,Vecumnieku Novads
Sala,56.5047,25.7618,LV,Salas Novads
Plavinas,56.6177,25.7194,LV,Pļaviņu Novads
Liepaga,56.51,21.01,LV,Liepāja
Rujiena,57.8961,25.3342,LV,Rūjienas Novads
Naukseni,57.8842,25.458,LV,Naukšēnu Novads
Liegi,56.5797,21.3338,LV,Durbes Novads
Rauna,57.3337,25.6085,LV,Raunas Novads
Aizpute,56.7211,21.6016,LV,Aizputes Novads
Koceni,57.5198,25.3404,LV,Kocēnu Novads
Valmiera,57.5387,25.4257,LV,Valmiera
Sigulda,57.1538,24.8595,LV,Siguldas Novads
Priekuli,57.3115,25.3571,LV,Priekuļu Novads
Ogre,56.8113,24.6113,LV,Ogres Novads
Ragana,57.1821,24.7056,LV,Krimuldas Novads
Loja,57.1534,24.6433,LV,Sējas Novads
Ropazi,56.9747,24.6329,LV,Ropažu Novads
Priekule,56.4458,21.5939,LV,Priekules Novads
Rucava,56.164,21.1627,LV,Rucavas Novads
Salaspils,56.861,24.3498,LV,Salaspils Novads
Ikskile,56.834,24.4968,LV,Ikšķiles Novads
Incukalns,57.0987,24.6863,LV,Inčukalna Novads
Malpils,57.0101,24.9578,LV,Mālpils Novads
Olaine,56.7947,23.9358,LV,Olaines Novads
Kekava,56.8296,24.2318,LV,Ķekavas Novads
Ligatne,57.2379,25.0436,LV,Līgatnes Novads
Stalbe,57.3708,25.0324,LV,Pārgaujas Novads
Vainode,56.4185,21.8541,LV,Vaiņodes Novads
Tripoli,32.8925,13.18,LY,Ţarābulus
Gharyan,32.1704,13.02,LY,Al Jabal al Gharbī
Surt,31.21,16.59,LY,Surt
Marzuq,25.9044,13.8972,LY,Murzuq
Sabha,27.0333,14.4333,LY,Sabhā
Misratah,32.38,15.1,LY,Mişrātah
Al `Aziziyah,32.5319,13.0175,LY,Al Jafārah
Zuwarah,32.9344,12.0791,LY,An Nuqāţ al Khams
Nalut,31.8804,10.97,LY,Nālūt
Hun,29.1167,15.9333,LY,Al Jufrah
Darnah,32.7648,22.6391,LY,Darnah
Al Bayda,32.7604,21.62,LY,Al Jabal al Akhḑar
Az Zawiyah,32.7604,12.72,LY,Az Zāwiyah
Tajarhi,24.3704,14.4708,LY,
Al Jaghbub,29.7504,24.5166,LY,
Awjilah,29.108,21.2869,LY,
Al Khums,32.6604,14.26,LY,Al Marqab
Ajdabiya,30.77,20.22,LY,Al Wāḩāt
Al Kufrah,24.1667,23.2696,LY,Al Kufrah
Al Jawf,24.2,23.29,LY,
As Sidr,30.6704,18.2666,LY,
Umm al Abid,27.517,15.0333,LY,
Banghazi,32.1167,20.0667,LY,Banghāzī
Dirj,30.1679,10.4567,LY,Nālūt
Mizdah,31.4337,12.9833,LY,Al Jabal al Gharbī
Ghadamis,30.1333,9.5,LY,Nālūt
Qaminis,31.6606,20.0155,LY,Banghāzī
Awbari,26.5903,12.7751,LY,Wādī al Ḩayāt
Ghat,24.9647,10.1728,LY,Ghāt
Bani Walid,31.7704,13.99,LY,Mişrātah
Zillah,28.5504,17.5834,LY,Al Jufrah
Tmassah,26.3666,15.8,LY,Murzuq
Idri,27.4471,13.0517,LY,Wādī ash Shāţi’
El Agheila,30.257,19.2,LY,Al Wāḩāt
Birak,27.5333,14.2834,LY,Wādī ash Shāţi’
Maradah,29.2337,19.2166,LY,Al Wāḩāt
Shahhat,32.8281,21.8622,LY,Al Jabal al Akhḑar
Al Marj,32.5005,20.83,LY,Al Marj
Tubruq,32.08,23.96,LY,Al Buţnān
Kenitra,34.2704,-6.58,MA,Rabat-Salé-Kénitra
Goulimine,28.98,-10.07,MA,Guelmim-Oued Noun
Fez,34.0546,-5.0004,MA,Fès-Meknès
Casablanca,33.6,-7.6164,MA,Casablanca-Settat
Agadir,30.44,-9.62,MA,Souss-Massa
Beni Mellal,32.3373,-6.3498,MA,Béni Mellal-Khénifra
Tangier,35.7473,-5.8327,MA,Tanger-Tétouan-Al Hoceïma
Settat,33.0104,-7.62,MA,Casablanca-Settat
Oujda,34.69,-1.91,MA,Oriental
Meknes,33.9004,-5.56,MA,Fès-Meknès
Rabat,34.0253,-6.8361,MA,Rabat-Salé-Kénitra
Marrakesh,31.63,-8,MA,Marrakech-Safi
El Jadida,33.2604,-8.51,MA,Casablanca-Settat
Er Rachidia,31.9404,-4.45,MA,Drâa-Tafilalet
Tan Tan,28.4304,-11.1,MA,Guelmim-Oued Noun
Taza,34.2204,-4.02,MA,Fès-Meknès
Larache,35.2004,-6.16,MA,Tanger-Tétouan-Al Hoceïma
Ksar El Kebir,35.0204,-5.91,MA,Tanger-Tétouan-Al Hoceïma
Safi,32.32,-9.24,MA,Marrakech-Safi
Tiznit,29.7104,-9.74,MA,Souss-Massa
Ouezzane,34.8103,-5.57,MA,Tanger-Tétouan-Al Hoceïma
Monaco,43.7396,7.4069,MC,
Leova,46.4823,28.253,MD,Leova
Rezina,47.7493,28.9658,MD,Rezina
Causeni,46.6367,29.4111,MD,Căuşeni
Riscani,47.9479,27.5638,MD,Rîşcani
Singerei,47.6363,28.143,MD,Sîngerei
Falesti,47.5767,27.7126,MD,Făleşti
Floresti,47.8914,28.2931,MD,Floreşti
Soldanesti,47.8161,28.7972,MD,Şoldăneşti
Stefan Voda,46.5129,29.6619,MD,Ştefan-Vodă
Orhei,47.3849,28.8245,MD,Orhei
Comrat,46.2946,28.6565,MD,Găgăuzia
Cimislia,46.5268,28.7644,MD,Cimişlia
Cantemir,46.2774,28.2027,MD,Cantemir
Basarabeasca,46.3317,28.9636,MD,Basarabeasca
Edinet,48.1721,27.3034,MD,Edineţ
Ocnita,48.3827,27.4381,MD,Ocniţa
Drochia,48.0355,27.8129,MD,Drochia
Donduseni,48.2394,27.6056,MD,Donduşeni
Briceni,48.3629,27.0779,MD,Briceni
Ialoveni,46.9435,28.7823,MD,Ialoveni
Balti,47.7591,27.9053,MD,Bălţi
Criuleni,47.2131,29.1593,MD,Criuleni
Bender,46.8316,29.4777,MD,Bender
Anenii Noi,46.8784,29.2348,MD,Anenii Noi
Cahul,45.9079,28.1944,MD,Cahul
Chisinau,47.005,28.8577,MD,Chişinău
Straseni,47.1422,28.6077,MD,Străşeni
Tiraspol,46.8531,29.64,MD,Stînga Nistrului
Telenesti,47.5011,28.3654,MD,Teleneşti
Taraclia,45.9027,28.6682,MD,Taraclia
Dubasari,47.2631,29.1608,MD,Stînga Nistrului
Cocieri,47.3087,29.1101,MD,Dubăsari
Calarasi,47.2556,28.3099,MD,Călăraşi
Glodeni,47.7751,27.5189,MD,Glodeni
Hincesti,46.8305,28.5906,MD,Hînceşti
Nisporeni,47.0816,28.1714,MD,Nisporeni
Soroca,48.1566,28.2849,MD,Soroca
Ungheni,47.2108,27.8005,MD,Ungheni
Berane,42.8425,19.8733,ME,Berane
Plav,42.5969,19.9456,ME,Plav
Andrijevica,42.7339,19.7919,ME,Andrijevica
Petnjica,42.9089,19.9644,ME,Petnjica
Gusinje,42.5619,19.8339,ME,Gusinje
Kolasin,42.8242,19.5225,ME,Kolašin
Podgorica,42.466,19.2663,ME,Podgorica
Bijelo Polje,43.0292,19.7456,ME,Bijelo Polje
Bar,42.0931,19.1003,ME,Bar
Budva,42.2864,18.84,ME,Budva
Cetinje,42.3922,18.9225,ME,Cetinje
Danilovgrad,42.5472,19.1053,ME,Danilovgrad
Herceg-Novi,42.4531,18.5375,ME,Herceg Novi
Kotor,42.4258,18.7719,ME,Kotor
Mojkovac,42.9639,19.5825,ME,Mojkovac
Niksic,42.775,18.9583,ME,Nikšić
Pluzine,43.1528,18.8394,ME,Plužine
Pljevlja,43.3522,19.3542,ME,Pljevlja
Rozaje,42.8439,20.1683,ME,Rožaje
Savnik,42.9564,19.0967,ME,Šavnik
Tivat,42.4364,18.6961,ME,Tivat
Ulcinj,41.9283,19.2064,ME,Ulcinj
Zabljak,43.1547,19.1219,ME,Žabljak
Marigot,18.0706,-63.0847,MF,
Antananarivo,-18.9166,47.5166,MG,Antananarivo
Toamasina,-18.1818,49.405,MG,Toamasina
Antalaha,-14.8833,50.2833,MG,Antsiranana
Maroantsetra,-15.4333,49.7333,MG,Toamasina
Mandritsara,-15.8328,48.8166,MG,Mahajanga
Besalampy,-16.7495,44.4833,MG,Mahajanga
Marovoay,-16.0995,46.6333,MG,Mahajanga
Andoany,-13.4,48.2666,MG,Antsiranana
Mahajanga,-15.67,46.345,MG,Mahajanga
Ambanja,-13.6829,48.45,MG,Antsiranana
Antsiranana,-12.2765,49.3115,MG,Antsiranana
Miandrivazo,-19.5162,45.4666,MG,Toliara
Mananjary,-21.2167,48.3333,MG,Fianarantsoa
Morombe,-21.7391,43.3657,MG,Toliara
Toliara,-23.3568,43.69,MG,Toliara
Manja,-21.4329,44.3333,MG,Toliara
Fianarantsoa,-21.4333,47.0833,MG,Fianarantsoa
Androka,-25.0219,44.0749,MG,Toliara
Bekiy,-24.2162,45.3166,MG,Toliara
Antsirabe,-19.85,47.0333,MG,Antananarivo
Antsohihy,-14.8661,47.9834,MG,Mahajanga
Maintirano,-18.0666,44.0167,MG,Mahajanga
Ambatondrazaka,-17.8329,48.4167,MG,Toamasina
Farafangana,-22.8166,47.8332,MG,Fianarantsoa
Ihosy,-22.3996,46.1167,MG,Fianarantsoa
Morondava,-20.2833,44.2833,MG,Toliara
Tolanaro,-25.0268,46.99,MG,Toliara
Sambava,-14.2662,50.1666,MG,Antsiranana
Majuro,7.103,171.38,MH,Majuro
Vevcani,41.2406,20.5933,MK,Vevčani
Kocani,41.9164,22.4128,MK,Kočani
Staro Nagoricane,42.1981,21.8286,MK,Staro Nagoričane
Radovis,41.6383,22.4647,MK,Radoviš
Sopiste,41.9547,21.4275,MK,Sopište
Petrovec,41.9389,21.615,MK,Petrovec
Bosilovo,41.4406,22.7278,MK,Bosilovo
Zrnovci,41.8542,22.4444,MK,Zrnovci
Gradsko,41.5775,21.9428,MK,Gradsko
Lipkovo,42.1564,21.5853,MK,Lipkovo
Lozovo,41.7839,21.9056,MK,Lozovo
Plasnica,41.4672,21.1231,MK,Plasnica
Aracinovo,42.0264,21.5619,MK,Aračinovo
Studenicani,41.9158,21.5306,MK,Studeničani
Resen,41.0893,21.0109,MK,Resen
Bogovinje,41.9236,20.9136,MK,Bogovinje
Vinica,41.8828,22.5092,MK,Vinica
Belcista,41.3028,20.8303,MK,Debarca
Mogila,41.1083,21.3786,MK,Mogila
Veles,41.7156,21.7756,MK,Veles
Kavadarci,41.4331,22.0119,MK,Kavadarci
Kumanovo,42.1322,21.7144,MK,Kumanovo
Ohrid,41.1172,20.8019,MK,Ohrid
Strumica,41.4375,22.6433,MK,Strumica
Makedonski Brod,41.5136,21.2153,MK,Makedonski Brod
Rostusa,41.61,20.6,MK,Mavrovo i Rostuša
Struga,41.178,20.6778,MK,Struga
Cucer-Sandevo,42.102,21.3846,MK,Čučer-Sandevo
Novo Selo,41.4149,22.8816,MK,Novo Selo
Zelenikovo,41.8841,21.5885,MK,Zelenikovo
Star Dojran,41.1865,22.7203,MK,Dojran
Skopje,42,21.4335,MK,
Stip,41.7423,22.1979,MK,Štip
Makedonska Kamenica,42.0208,22.5876,MK,Makedonska Kamenica
Ilinden,41.9945,21.58,MK,Ilinden
Demir Hisar,41.221,21.203,MK,Demir Hisar
Zelino,41.9825,21.0624,MK,Želino
Prilep,41.3451,21.555,MK,Prilep
Bitola,41.0391,21.3395,MK,Bitola
Krivogastani,41.3369,21.3311,MK,Krivogaštani
Krusevo,41.3694,21.2483,MK,Kruševo
Vasilevo,41.4741,22.643,MK,Vasilevo
Gostivar,41.796,20.9082,MK,Gostivar
Vrapciste,41.8344,20.8856,MK,Vrapčište
Novaci,41.042,21.4587,MK,Novaci
Caska,41.6487,21.6922,MK,Čaška
Kratovo,42.0784,22.1807,MK,Kratovo
Probistip,42.0019,22.1728,MK,Probištip
Debar,41.5244,20.5242,MK,Debar
Centar Zupa,41.4788,20.5586,MK,Centar Župa
Rosoman,41.5167,21.9458,MK,Rosoman
Jegunovce,42.0724,21.1237,MK,Jegunovce
Demir Kapija,41.4061,22.2463,MK,Demir Kapija
Negotino,41.4846,22.0906,MK,Negotino
Konce,41.4951,22.3836,MK,Konče
Dolneni,41.4258,21.454,MK,Dolneni
Sveti Nikole,41.8667,21.9411,MK,Sveti Nikole
Valandovo,41.3174,22.56,MK,Valandovo
Kicevo,41.5127,20.9589,MK,Kičevo
Delcevo,41.9654,22.7763,MK,Delčevo
Tetovo,42.0092,20.9701,MK,Tetovo
Cesinovo,41.8715,22.2896,MK,Češinovo-Obleševo
Karbinci,41.8176,22.2353,MK,Karbinci
Tearce,42.0767,21.0531,MK,Tearce
Kriva Palanka,42.2009,22.3324,MK,Kriva Palanka
Rankovce,42.1686,22.1166,MK,Rankovce
Pehcevo,41.7623,22.8892,MK,Pehčevo
Gevgelija,41.1417,22.5014,MK,Gevgelija
Bogdanci,41.2031,22.5756,MK,Bogdanci
Berovo,41.7031,22.8578,MK,Berovo
Brvenica,41.9672,20.9808,MK,Brvenica
Aguelhok,19.4549,0.8564,ML,Kidal
Bamako,12.65,-8,ML,Bamako
Kidal,18.4411,1.4078,ML,Kidal
Bourem,16.9004,-0.35,ML,Gao
Mopti,14.49,-4.18,ML,Mopti
Gao,16.2666,-0.05,ML,Gao
Satadougou,12.617,-11.4066,ML,Kayes
Koulikoro,12.8833,-7.55,ML,Koulikoro
Sikasso,11.3204,-5.68,ML,Sikasso
Araouane,18.9,-3.53,ML,Tombouctou
Segou,13.44,-6.26,ML,Ségou
Timbuktu,16.7666,-3.0166,ML,Tombouctou
Markala,13.6704,-6.07,ML,Ségou
Taoudenni,22.6666,-3.9834,ML,Tombouctou
Kayes,14.45,-11.44,ML,Kayes
Sokolo,14.7337,-6.1333,ML,Ségou
Kita,13.0504,-9.4833,ML,Kayes
Nara,15.18,-7.28,ML,Koulikoro
Kati,12.7504,-8.08,ML,Koulikoro
Kangaba,11.9404,-8.44,ML,Koulikoro
San,13.3004,-4.9,ML,Ségou
Bougouni,11.4204,-7.49,ML,Sikasso
Koutiala,12.3904,-5.47,ML,Sikasso
Djenne,13.9,-4.55,ML,Mopti
Yelimane,15.1337,-10.5666,ML,Kayes
Bafoulabe,13.8004,-10.82,ML,Kayes
Nioro du Sahel,15.2304,-9.59,ML,Kayes
Goundam,16.417,-3.6666,ML,Tombouctou
Menaka,15.9167,2.4,ML,Gao
Tessalit,20.2014,1.0888,ML,Kidal
Banamba,13.5504,-7.45,ML,Koulikoro
Rangoon,16.7834,96.1667,MM,Yangon
Allanmyo,19.3783,95.2279,MM,Magway
Mudon,16.2618,97.7215,MM,Mon State
Mawlamyine,16.5004,97.67,MM,Mon State
Phyarpon,16.2933,95.6829,MM,Ayeyawady
Labutta,16.1619,94.7014,MM,Ayeyawady
Dawei,14.098,98.195,MM,Taninthayi
Myeik,12.4541,98.6115,MM,Taninthayi
Ye,15.2533,97.8679,MM,Mon State
Namtu,23.0837,97.4,MM,Shan State
Hinthada,17.6483,95.4679,MM,Ayeyawady
Thongwa,16.7547,96.5193,MM,Yangon
Bago,17.32,96.515,MM,Bago
Pathein,16.7704,94.75,MM,Ayeyawady
Yandoon,17.0433,95.6429,MM,Ayeyawady
Wakema,16.6133,95.1829,MM,Ayeyawady
Pyay,18.8165,95.2114,MM,Bago
Chauk,20.9085,94.823,MM,Magway
Myitkyina,25.3596,97.3928,MM,Kachin State
Monywa,22.105,95.15,MM,Sagaing
Naypyidaw,19.7666,96.1186,MM,Nay Pyi Taw
Loikaw,19.665,97.206,MM,Kayah State
Yaynangyoung,20.4615,94.881,MM,Magway
Kyaukphyu,19.429,93.5494,MM,Rakhine State
Magway,20.1445,94.9196,MM,Magway
Shwebo,22.5783,95.6929,MM,Sagaing
Sagaing,21.88,95.962,MM,Sagaing
Myingyan,21.4618,95.3914,MM,Mandalay
Pakokku,21.332,95.0866,MM,Magway
Mandalay,21.97,96.085,MM,Mandalay
Taunggyi,20.782,97.038,MM,Shan State
Pyu,18.4779,96.4379,MM,Bago
Taungoo,18.9483,96.4179,MM,Bago
Letpadan,17.7819,95.7415,MM,Bago
Sittwe,20.14,92.88,MM,Rakhine State
Pa-an,16.85,97.6167,MM,Kayin State
Hakha,22.65,93.6167,MM,Chin State
Olgiy,48.9337,89.95,MN,Bayan-Ölgiy
Mandalgovi,45.75,106.266,MN,Dundgovĭ
Ulaanbaatar,47.9167,106.9166,MN,Ulaanbaatar
Moron,49.6453,100.1544,MN,Hövsgöl
Darhan,49.6167,106.35,MN,Selenge
Erdenet,49.0533,104.1183,MN,Orhon
Uliastay,47.75,96.8167,MN,Dzavhan
Choyr,46.3611,108.3611,MN,Govĭsümber
Altay,46.3722,96.2583,MN,Govĭ-Altay
Buyant-Uhaa,44.8666,110.15,MN,Dornogovĭ
Choybalsan,48.0666,114.506,MN,Dornod
Ulaangom,49.9833,92.0666,MN,Uvs
Bulgan,48.8106,103.5317,MN,Bulgan
Arvayheer,46.25,102.7666,MN,Övörhangay
Tsetserleg,47.4769,101.4502,MN,Arhangay
Bayankhongor,46.3,100.9833,MN,Bayanhongor
Darhan,49.4867,105.9228,MN,Darhan-Uul
Dzuunharaa,48.8666,106.4666,MN,Selenge
Dzuunmod,47.711,106.947,MN,Töv
Ondorhaan,47.3167,110.65,MN,Hentiy
Dalandzadgad,43.5836,104.4403,MN,Ömnögovĭ
Ulaan-Uul,44.3337,111.2333,MN,Dornogovĭ
Hodrogo,48.9664,96.7833,MN,Dzavhan
Baruun Urt,46.7,113.2833,MN,Sühbaatar
Suchboatar,50.25,106.2,MN,Selenge
Dund-Us,48.0166,91.6333,MN,Hovd
Macau,22.203,113.545,MO,
Fort-de-France,14.6104,-61.08,MQ,
Bogue,16.5904,-14.27,MR,Brakna
Chegga,25.3804,-5.78,MR,Tiris Zemmour
Boutilimit,17.5504,-14.7,MR,Trarza
Timbedra,16.2504,-8.1666,MR,Hodh ech Chargui
Bir Mogrein,25.2333,-11.5833,MR,Tiris Zemmour
Fderik,22.679,-12.707,MR,Tiris Zemmour
Selibaby,15.167,-12.1833,MR,Guidimaka
Aleg,17.058,-13.909,MR,Brakna
Akjoujt,19.747,-14.391,MR,Inchiri
Kiffa,16.62,-11.4,MR,Assaba
Nema,16.6171,-7.25,MR,Hodh ech Chargui
Nouadhibou,20.9,-17.056,MR,Dakhlet Nouadhibou
Rosso,16.524,-15.8127,MR,Trarza
Tidjikdja,18.55,-11.4166,MR,Tagant
Atar,20.5166,-13.05,MR,Adrar
Kaedi,16.1503,-13.5037,MR,Gorgol
Zouirat,22.7304,-12.4833,MR,Tiris Zemmour
Arafat,18.0583,-15.9621,MR,Nouakchott Sud
Dar Naim,18.0973,-15.9327,MR,Nouakchott Nord
Tevragh Zeina,18.0989,-15.9885,MR,Nouakchott Ouest
Nouakchott,18.0864,-15.9753,MR,
Ayoun el Atrous,16.6666,-9.6167,MR,Hodh el Gharbi
Plymouth,16.7,-62.2167,MS,Saint Anthony
Birzebbuga,35.8258,14.5269,MT,Birżebbuġa
Marsaskala,35.8669,14.5619,MT,Marsaskala
Marsaxlokk,35.8419,14.5431,MT,Marsaxlokk
Kirkop,35.8422,14.4853,MT,Kirkop
Pieta,35.8947,14.495,MT,Pietà
Zejtun,35.8558,14.5331,MT,Żejtun
Attard,35.8897,14.4425,MT,Attard
Pembroke,35.9306,14.4764,MT,Pembroke
Zebbug,35.8719,14.4411,MT,Żebbuġ
Ta' Xbiex,35.8992,14.4944,MT,Ta’ Xbiex
Sliema,35.9125,14.5019,MT,Sliema
San Lawrenz,36.0556,14.2036,MT,San Lawrenz
Imqabba,35.8461,14.4672,MT,Imqabba
Imdina,35.8869,14.4025,MT,Imdina
Qala,36.0361,14.3094,MT,Qala
Imtarfa,35.8933,14.3989,MT,Imtarfa
Zurrieq,35.8311,14.4742,MT,Żurrieq
Gudja,35.8492,14.5031,MT,Gudja
Sannat,36.0244,14.2428,MT,Sannat
Valletta,35.8997,14.5147,MT,Valletta
Zabbar,35.8761,14.535,MT,Żabbar
Luqa,35.8589,14.4886,MT,Luqa
Qormi,35.8783,14.4719,MT,Qormi
Imgarr,35.9206,14.3664,MT,Imġarr
Saint Paul's Bay,35.9483,14.4006,MT,San Pawl il-Baħar
Qrendi,35.8347,14.4583,MT,Qrendi
Munxar,36.03,14.2333,MT,Munxar
Hamrun,35.8847,14.4844,MT,Ħamrun
Naxxar,35.9136,14.4436,MT,Naxxar
Ghaxaq,35.8489,14.5167,MT,Għaxaq
Ghasri,36.0578,14.2264,MT,Għasri
Victoria,36.0444,14.2397,MT,Rabat (Ghawdex)
Iklin,35.9092,14.4522,MT,Iklin
Gharghur,35.9242,14.4519,MT,Għargħur
Dingli,35.8614,14.3822,MT,Dingli
Siggiewi,35.8556,14.4364,MT,Siġġiewi
Xewkija,36.0328,14.2581,MT,Xewkija
Lija,35.9006,14.4464,MT,Lija
Safi,35.8331,14.4847,MT,Safi
Senglea,35.8875,14.5169,MT,Isla
Xaghra,36.05,14.2644,MT,Xagħra
Xghajra,35.8856,14.5475,MT,Xgħajra
Zebbug,36.0722,14.2358,MT,Żebbuġ (Ghawdex)
Gzira,35.9058,14.4881,MT,Gżira
Imsida,35.8925,14.4828,MT,Imsida
Kalkara,35.8892,14.5328,MT,Kalkara
Kercem,36.0419,14.2267,MT,Kerċem
Mellieha,35.9564,14.3622,MT,Mellieħa
Mosta,35.9092,14.4256,MT,Mosta
Nadur,36.0378,14.2942,MT,Nadur
Paola,35.8731,14.4989,MT,Paola
Rabat,35.8822,14.3981,MT,Rabat
Marsa,35.8792,14.4953,MT,Marsa
San Giljan,35.9197,14.4844,MT,San Ġiljan
San Gwann,35.9056,14.4761,MT,San Ġwann
Santa Lucija,36.0431,14.2172,MT,Santa Luċija
Santa Venera,35.8908,14.4742,MT,Santa Venera
Swieqi,35.9225,14.48,MT,Swieqi
Tarxien,35.8658,14.515,MT,Tarxien
Balzan,35.9003,14.455,MT,Balzan
Vittoriosa,35.8922,14.5183,MT,Birgu
Birkirkara,35.8972,14.4611,MT,Birkirkara
Cospicua,35.8856,14.5275,MT,Bormla
Fgura,35.8703,14.5133,MT,Fgura
Floriana,35.8958,14.5083,MT,Floriana
Fontana,36.0375,14.2361,MT,Fontana
Ghajnsielem,36.0264,14.285,MT,Għajnsielem
Gharb,36.06,14.2089,MT,Għarb
Port Louis,-20.1666,57.5,MU,Port Louis
Curepipe,-20.3162,57.5166,MU,Plaines Wilhems
Male,4.1667,73.4999,MV,Maale
Dhidhdhoo,6.8874,73.114,MV,
Eydhafushi,5.1038,73.0699,MV,
Felidhoo,3.4718,73.547,MV,
Funadhoo,6.1509,73.2901,MV,
Hithadhoo,-0.6,73.0833,MV,
Kudahuvadhoo,2.6717,72.8936,MV,
Magoodhoo,3.0789,72.9647,MV,
Kulhudhuffushi,6.6223,73.0702,MV,
Mahibadhoo,3.7571,72.9689,MV,
Manadhoo,5.7669,73.4136,MV,
Muli,2.9217,73.5811,MV,
Naifaru,5.4442,73.3662,MV,
Thinadhoo,0.5303,72.9967,MV,
Un'goofaaru,5.6681,73.0302,MV,
Veymandoo,2.1878,73.095,MV,
Villin'gili,0.7539,73.4353,MV,
Fonadhoo,1.8342,73.5031,MV,
Fuvahmulaku,-0.3,73.4256,MV,
Rasdhoo,4.2631,72.9919,MV,
Thulusdhoo,4.3742,73.6517,MV,
Thyolo,-16.0703,35.1471,MW,Thyolo
Mwanza,-15.6167,34.5167,MW,Mwanza
Chiradzulu,-15.7,35.1833,MW,Chiradzulu
Karonga,-9.9329,33.9333,MW,Karonga
Neno,-15.3981,34.6534,MW,Neno
Zomba,-15.39,35.31,MW,Zomba
Chikwawa,-16.042,34.8019,MW,Chikwawa
Mulanje,-16.0333,35.5,MW,Mulanje
Blantyre,-15.79,34.9899,MW,Blantyre
Chiromo,-16.55,35.1332,MW,Nsanje
Phalombe,-15.8064,35.6507,MW,Phalombe
Nsanje,-16.9167,35.2667,MW,Nsanje
Nkhata Bay,-11.5996,34.3,MW,Nkhata Bay
Rumphi,-11.0195,33.8546,MW,Rumphi
Chitipa,-9.7162,33.2666,MW,Chitipa
Mzuzu,-11.46,34.02,MW,
Mzimba,-11.9,33.6,MW,Mzimba
Ntchisi,-13.3753,34.0036,MW,Ntchisi
Dowa,-13.6532,33.9385,MW,Dowa
Mchinji,-13.8,32.9,MW,Mchinji
Nkhotakota,-12.9163,34.3,MW,Nkhotakota
Kasungu,-13.0364,33.4822,MW,Kasungu
Ntcheu,-14.8167,34.6333,MW,Ntcheu
Dedza,-14.3667,34.3333,MW,Dedza
Salima,-13.7829,34.4333,MW,Salima
Lilongwe,-13.9833,33.7833,MW,Lilongwe
Mangochi,-14.4596,35.27,MW,Mangochi
Balaka,-14.9889,34.9591,MW,Balaka
Machinga,-14.9667,35.5167,MW,Machinga
Nacozari de Garcia,30.42,-109.65,MX,Sonora
Nueva Rosita,27.95,-101.22,MX,Coahuila de Zaragoza
San Felipe,31.0241,-114.8496,MX,Baja California
Zacatecas,22.7704,-102.58,MX,Zacatecas
Irapuato,20.67,-101.5,MX,Guanajuato
Vicente Guerrero,30.7641,-116.0093,MX,Baja California
San Quintin,30.4837,-115.95,MX,Baja California
Chetumal,18.5,-88.3,MX,Quintana Roo
Esperanza,27.58,-109.93,MX,Sonora
Izamal,20.9304,-89.0201,MX,Yucatán
Ticul,20.4004,-89.53,MX,Yucatán
Villahermosa,18,-92.9,MX,Tabasco
Mazatlan,23.2211,-106.42,MX,Sinaloa
Ciudad Victoria,23.72,-99.13,MX,Tamaulipas
Mexicali,32.65,-115.48,MX,Baja California
Aguascalientes,21.8795,-102.2904,MX,Aguascalientes
Chihuahua,28.645,-106.085,MX,Chihuahua
Guanajuato,21.0204,-101.28,MX,Guanajuato
Chilpancingo,17.55,-99.5,MX,Guerrero
Pachuca,20.1704,-98.73,MX,Hidalgo
Guadalajara,20.67,-103.33,MX,Jalisco
Cuernavaca,18.9211,-99.24,MX,Morelos
Monterrey,25.67,-100.33,MX,Nuevo León
Lazaro Cardenas,17.9587,-102.2,MX,Michoacán de Ocampo
Miahuatlan,16.33,-96.6,MX,Oaxaca
Mitla,16.917,-96.4,MX,Oaxaca
Valladolid,20.6704,-88.2,MX,Yucatán
Ciudad Constitucion,25.04,-111.66,MX,Baja California Sur
Villa Union,23.2,-106.23,MX,Sinaloa
Eldorado,24.3305,-107.37,MX,Sinaloa
Tekax,20.2,-89.28,MX,Yucatán
Montemorelos,25.19,-99.84,MX,Nuevo León
Xalapa,19.53,-96.92,MX,Veracruz
Teziutlan,19.8204,-97.36,MX,Puebla
Motul,21.1,-89.28,MX,Yucatán
Merida,20.9666,-89.6166,MX,Yucatán
Guerrero Negro,27.9904,-114.17,MX,Baja California
Saltillo,25.42,-101.005,MX,Coahuila de Zaragoza
Punta Prieta,28.9337,-114.1666,MX,Baja California
Salina Cruz,16.1671,-95.2,MX,Oaxaca
Durango,24.0311,-104.67,MX,Durango
Acatlan,18.2,-98.05,MX,Puebla
Tepic,21.5054,-104.88,MX,Nayarit
Tecuala,22.4004,-105.46,MX,Nayarit
Ayutla,16.9004,-99.22,MX,Guerrero
Huajuapan de Leon,17.8104,-97.79,MX,Oaxaca
Pochutla,15.7304,-96.47,MX,Oaxaca
Colima,19.23,-103.72,MX,Colima
Autlan,19.77,-104.37,MX,Jalisco
Coalcoman,18.7804,-103.15,MX,Michoacán de Ocampo
Apatzingan,19.08,-102.35,MX,Michoacán de Ocampo
Halacho,20.48,-90.08,MX,Yucatán
Peto,20.13,-88.92,MX,Yucatán
Papasquiaro,24.8304,-105.34,MX,Durango
Puerto Escondido,15.8592,-97.0659,MX,Oaxaca
Hermosillo,29.0989,-110.9541,MX,Sonora
Juchitan,16.43,-95.02,MX,Oaxaca
San Luis Potosi,22.17,-101,MX,San Luis Potosí
Culiacan,24.83,-107.38,MX,Sinaloa
Uruapan,19.4204,-102.07,MX,Michoacán de Ocampo
Tehuantepec,16.33,-95.23,MX,Oaxaca
Salamanca,20.5704,-101.2,MX,Guanajuato
Mexico City,19.4424,-99.131,MX,Ciudad de México
Zamora,19.9804,-102.28,MX,Michoacán de Ocampo
Tlaxiaco,17.2704,-97.68,MX,Oaxaca
Petatlan,17.5204,-101.27,MX,Guerrero
La Cruz,23.9204,-106.9,MX,Sinaloa
Allende,28.33,-100.85,MX,Coahuila de Zaragoza
Agua Prieta,31.3223,-109.563,MX,Sonora
Piedras Negras,28.7076,-100.5317,MX,Coahuila de Zaragoza
Reynosa,26.08,-98.3,MX,Tamaulipas
Ojinaga,29.5404,-104.41,MX,Chihuahua
La Paz,24.14,-110.32,MX,Baja California Sur
Tapachula,14.9,-92.27,MX,Chiapas
Escuintla,15.33,-92.63,MX,Chiapas
Atlixco,18.9,-98.45,MX,Puebla
Orizaba,18.85,-97.13,MX,Veracruz
Taxco,18.5704,-99.62,MX,Guerrero
Iguala,18.37,-99.54,MX,Guerrero
Cabo San Lucas,22.8928,-109.9045,MX,Baja California Sur
Villanueva,22.35,-102.88,MX,Zacatecas
Tecpan,17.25,-100.68,MX,Guerrero
Atoyac,17.2,-100.43,MX,Guerrero
Jaltipan,17.94,-94.74,MX,Veracruz
La Barca,20.2804,-102.56,MX,Jalisco
Queretaro,20.63,-100.38,MX,Querétaro
Leon,21.15,-101.7,MX,Guanajuato
Pijijiapan,15.6904,-93.22,MX,Chiapas
Campeche,19.83,-90.5,MX,Campeche
Toluca,19.3304,-99.67,MX,México
Tlaxcala,19.32,-98.23,MX,Tlaxcala
Oaxaca,17.0827,-96.6699,MX,Oaxaca
Puebla,19.05,-98.2,MX,Puebla
Tuxtla Gutierrez,16.75,-93.15,MX,Chiapas
Lagos de Moreno,21.3704,-101.93,MX,Jalisco
Progreso,21.2833,-89.6666,MX,Yucatán
Tuxpam,20.9604,-97.41,MX,Veracruz
Balancan,17.8,-91.53,MX,Tabasco
Tizimin,21.1304,-88.15,MX,Yucatán
Los Mochis,25.79,-109,MX,Sinaloa
Altata,24.636,-107.9162,MX,Sinaloa
Navajoa,27.0819,-109.4546,MX,Sonora
Santa Barbara,26.8004,-105.82,MX,Chihuahua
Ciudad Hidalgo,19.68,-100.57,MX,Michoacán de Ocampo
Parras,25.4204,-102.1799,MX,Coahuila de Zaragoza
Hidalgo del Parral,26.9334,-105.6666,MX,Chihuahua
Delicias,28.2,-105.5,MX,Chihuahua
Ensenada,31.87,-116.62,MX,Baja California
Linares,24.8604,-99.57,MX,Nuevo León
San Juan del Rio,20.38,-100,MX,Querétaro
Minatitlan,17.9805,-94.53,MX,Veracruz
Villa Ahumada,30.6104,-106.51,MX,Chihuahua
Tehuacan,18.4504,-97.38,MX,Puebla
Ciudad del Carmen,18.6537,-91.8245,MX,Campeche
Morelia,19.7334,-101.1895,MX,Michoacán de Ocampo
Escuinapa,22.8504,-105.8,MX,Sinaloa
Nezahualcoyotl,19.41,-99.03,MX,México
Gomez Palacio,25.5701,-103.5,MX,Durango
Paraiso,18.4,-93.23,MX,Tabasco
Frontera,18.5804,-92.65,MX,Tabasco
Tenosique,17.4804,-91.43,MX,Tabasco
Tecoman,18.9204,-103.88,MX,Colima
Aldama,22.9204,-98.07,MX,Tamaulipas
Loreto,26.0133,-111.3517,MX,Baja California Sur
Santa Rosalia,27.3171,-112.2834,MX,Baja California Sur
El Fuerte,26.4204,-108.62,MX,Sinaloa
Guasave,25.5705,-108.47,MX,Sinaloa
Manzanillo,19.0496,-104.3231,MX,Colima
Celaya,20.53,-100.8,MX,Guanajuato
San Pedro de las Colonias,25.7592,-102.9827,MX,Coahuila de Zaragoza
Monclova,26.9,-101.42,MX,Coahuila de Zaragoza
Torreon,25.5701,-103.42,MX,Coahuila de Zaragoza
Nogales,31.305,-110.945,MX,Sonora
Rio Verde,21.93,-99.98,MX,San Luis Potosí
Tamuin,21.9804,-98.75,MX,San Luis Potosí
Tamazunchale,21.2704,-98.78,MX,San Luis Potosí
Ciudad Valles,21.98,-99.02,MX,San Luis Potosí
Cardenas,22,-99.67,MX,San Luis Potosí
Guamuchil,25.4704,-108.09,MX,Sinaloa
Tijuana,32.5,-117.08,MX,Baja California
Cozumel,20.51,-86.95,MX,Quintana Roo
Isla Mujeres,21.2084,-86.7115,MX,Quintana Roo
Cancun,21.17,-86.83,MX,Quintana Roo
Felipe Carrillo Puerto,19.5804,-88.05,MX,Quintana Roo
Champoton,19.3504,-90.72,MX,Campeche
Cuencame,24.8704,-103.7,MX,Durango
Canatlan,24.52,-104.78,MX,Durango
Compostela,21.2304,-104.9,MX,Nayarit
Santiago Ixcuintla,21.82,-105.22,MX,Nayarit
Tuxpan,21.9304,-105.27,MX,Nayarit
Matehuala,23.6604,-100.65,MX,San Luis Potosí
Fresnillo,23.1704,-102.86,MX,Zacatecas
Valparaiso,22.7704,-103.57,MX,Zacatecas
Sabinas Hidalgo,26.51,-100.18,MX,Nuevo León
Ascension,31.1,-107.98,MX,Chihuahua
Ciudad Juarez,31.6904,-106.49,MX,Chihuahua
Juan Aldama,24.2904,-103.39,MX,Zacatecas
Caborca,30.7161,-112.1642,MX,Sonora
Magdalena,30.6166,-111.05,MX,Sonora
Mazatlan,29.0171,-110.1333,MX,Sonora
Puerto Vallarta,20.6771,-105.245,MX,Jalisco
Zumpango,19.8104,-99.11,MX,México
Nuevo Laredo,27.5,-99.55,MX,Tamaulipas
Matamoros,25.88,-97.5,MX,Tamaulipas
San Fernando,24.8504,-98.16,MX,Tamaulipas
Ciudad Madero,22.3189,-97.8361,MX,Tamaulipas
Tampico,22.3,-97.87,MX,Tamaulipas
Ciudad Mante,22.7334,-98.95,MX,Tamaulipas
Tula,23.0004,-99.72,MX,Tamaulipas
Ciudad Guzman,19.7104,-103.46,MX,Jalisco
Ciudad Camargo,27.6904,-105.1701,MX,Chihuahua
Cuauhtemoc,28.4257,-106.8696,MX,Chihuahua
Nuevo Casas Grandes,30.4185,-107.9119,MX,Chihuahua
Poza Rica de Hidalgo,20.5504,-97.47,MX,Veracruz
Ometepec,16.6801,-98.42,MX,Guerrero
Ciudad Altamirano,18.3204,-100.65,MX,Guerrero
Huatabampo,26.8304,-109.63,MX,Sonora
Ciudad Obregon,27.4666,-109.925,MX,Sonora
Guaymas,27.93,-110.89,MX,Sonora
Panuco,22.0604,-98.19,MX,Veracruz
Cananea,30.9904,-110.3,MX,Sonora
Acapulco,16.85,-99.916,MX,Guerrero
San Cristobal de Las Casas,16.75,-92.6334,MX,Chiapas
Veracruz,19.1773,-96.16,MX,Veracruz
Coatzacoalcos,18.1204,-94.42,MX,Veracruz
Santiago Tuxtla,18.4704,-95.3,MX,Veracruz
Cordoba,18.9204,-96.92,MX,Veracruz
Nautla,20.2166,-96.7834,MX,Veracruz
Sibu,2.303,111.843,MY,Sarawak
Shah Alam,3.0667,101.55,MY,
Bintulu,3.1664,113.036,MY,Sarawak
Kuching,1.53,110.33,MY,Sarawak
Victoria,5.2767,115.2417,MY,Labuan
Taiping,4.865,100.72,MY,Perak
Chukai,4.2332,103.4479,MY,Terengganu
Kuala Lumpur,3.1667,101.7,MY,Kuala Lumpur 
Kangar,6.433,100.19,MY,Perlis
Alor Setar,6.1133,100.3729,MY,Kedah
George Town,5.4136,100.3294,MY,Pulau Pinang
Butterworth,5.4171,100.4,MY,Pulau Pinang
Sungai Petani,5.6497,100.4793,MY,Kedah
Sandakan,5.843,118.108,MY,Sabah
Lahad Datu,5.0464,118.336,MY,Sabah
Kota Baharu,6.12,102.23,MY,Kelantan
Johor Bahru,1.48,103.73,MY,Johor
Keluang,2.0383,103.3179,MY,Johor
Kuala Terengganu,5.3304,103.12,MY,Terengganu
Ipoh,4.6,101.065,MY,Perak
Kuantan,3.83,103.32,MY,Pahang
Kota Kinabalu,5.98,116.11,MY,Sabah
Tawau,4.271,117.896,MY,Sabah
Kuala Lipis,4.184,102.042,MY,Pahang
Teluk Intan,4.0119,101.0314,MY,Perak
Malacca,2.2064,102.2465,MY,Melaka
Muar,2.0337,102.5666,MY,Johor
Miri,4.3999,113.9845,MY,Sarawak
Seremban,2.7105,101.94,MY,Negeri Sembilan
Putrajaya,2.914,101.7019,MY,Negeri Sembilan
Raub,3.7927,101.8423,MY,Pahang
Batu Pahat,1.8504,102.9333,MY,Johor
Kelang,3.0204,101.55,MY,Selangor
Espungabera,-20.4501,32.77,MZ,Manica
Quelimane,-17.88,36.89,MZ,Zambézia
Nicuadala,-17.6077,36.8197,MZ,Zambézia
Mapai,-22.8427,31.9631,MZ,Gaza
Mocimboa,-11.3196,40.35,MZ,
Maxixe,-23.866,35.3886,MZ,Inhambane
Mocambique,-15.0399,40.6822,MZ,Nampula
Nampula,-15.136,39.293,MZ,Nampula
Massangena,-21.5373,32.9564,MZ,Gaza
Quissico,-24.7257,34.766,MZ,Inhambane
Chiramba,-16.8921,34.6559,MZ,Manica
Xai-Xai,-25.04,33.64,MZ,Gaza
Ligonha,-15.1757,37.74,MZ,Nampula
Vilanculos,-21.9995,35.3166,MZ,Inhambane
Dondo,-19.6196,34.73,MZ,Sofala
Macia,-25.0195,33.09,MZ,Gaza
Moatize,-16.0995,33.95,MZ,Tete
Angoche,-16.23,39.91,MZ,Nampula
Cuamba,-14.7896,36.54,MZ,Niassa
Inhambane,-23.858,35.3398,MZ,Inhambane
Beira,-19.82,34.87,MZ,Sofala
Lichinga,-13.3,35.24,MZ,Niassa
Pemba,-12.983,40.5323,MZ,Cabo Delgado
Panda,-24.0629,34.7303,MZ,Inhambane
Manica,-18.9696,32.88,MZ,Manica
Nacala,-14.5186,40.715,MZ,Nampula
Montepuez,-13.1196,39,MZ,Cabo Delgado
Maputo,-25.9553,32.5892,MZ,Maputo
Mocuba,-16.8496,38.26,MZ,Zambézia
Marrupa,-13.1984,37.4995,MZ,Niassa
Chimoio,-19.12,33.47,MZ,Manica
Tete,-16.17,33.58,MZ,Tete
Matola,-25.9696,32.46,MZ,Maputo
Oshikango,-17.3995,15.88,NA,Ohangwena
Okahandja,-21.9796,16.91,NA,Otjozondjupa
Ongwediva,-17.78,15.77,NA,Oshana
Windhoek,-22.57,17.0835,NA,Khomas
Oranjemund,-28.5495,16.43,NA,//Karas
Otavi,-19.64,17.342,NA,Otjozondjupa
Rehoboth,-23.3196,17.08,NA,Hardap
Bethanie,-26.4995,17.15,NA,//Karas
Karasburg,-28.0196,18.74,NA,//Karas
Omaruru,-21.436,15.951,NA,Erongo
Walvis Bay,-22.9575,14.5053,NA,Erongo
Karibib,-21.939,15.853,NA,Erongo
Luderitz,-26.648,15.1594,NA,//Karas
Grootfontein,-19.5666,18.1166,NA,Otjozondjupa
Usakos,-21.9995,15.58,NA,Erongo
Outjo,-20.1095,16.14,NA,Kunene
Katima Mulilo,-17.4996,24.26,NA,Zambezi
Outapi,-17.5,14.9833,NA,Omusati
Eenhana,-17.4667,16.3333,NA,Ohangwena
Oshakati,-17.7833,15.6833,NA,Oshana
Gobabis,-22.455,18.963,NA,Omaheke
Maltahohe,-24.84,16.94,NA,Hardap
Opuwo,-18.0596,13.82,NA,Kunene
Swakopmund,-22.6689,14.535,NA,Erongo
Keetmanshoop,-26.5739,18.13,NA,//Karas
Otjiwarongo,-20.4595,16.64,NA,Otjozondjupa
Mariental,-24.6196,17.9599,NA,Hardap
Rundu,-17.92,19.7499,NA,Kavango East
Nkurenkuru,-17.6167,18.6,NA,Kavango West
Tsumeb,-19.24,17.71,NA,Oshikoto
Omuthiya,-18.3611,16.5814,NA,Oshikoto
Kone,-21.0667,164.8667,NC,Province Nord
We,-20.9,167.2667,NC,Province Îles
Noumea,-22.2625,166.4443,NC,Province Sud
Niamey,13.5167,2.1167,NE,Niamey
Maradi,13.4916,7.0964,NE,Maradi
Zinder,13.8,8.9833,NE,Zinder
Ayorou,14.7318,0.9195,NE,Tillabéri
Gaya,11.8882,3.4467,NE,Dosso
Arlit,18.82,7.33,NE,Agadez
Birni Nkonni,13.7904,5.2599,NE,Tahoua
Madaoua,14.0762,5.9586,NE,Tahoua
Tahoua,14.9,5.2599,NE,Tahoua
Nguigmi,14.2532,13.1108,NE,Diffa
Dosso,13.05,3.2,NE,Dosso
Goure,13.9874,10.27,NE,Zinder
Diffa,13.3171,12.6089,NE,Diffa
Tillaberi,14.212,1.4531,NE,Tillabéri
Djado,21.015,12.3075,NE,Agadez
Agadez,16.9959,7.9828,NE,Agadez
Kingston,-29.0569,167.9617,NF,
Abuja,9.0833,7.5333,NG,Federal Capital Territory
Uyo,5.008,7.85,NG,Akwa Ibom
Akure,7.2504,5.2,NG,Ondo
Koko,11.4232,4.517,NG,Kebbi
Port Harcourt,4.81,7.01,NG,Rivers
Gombe,10.2904,11.17,NG,Gombe
Nsukka,6.867,7.3834,NG,Enugu
Potiskum,11.7104,11.08,NG,Yobe
Damaturu,11.749,11.966,NG,Yobe
Wukari,7.8704,9.78,NG,Taraba
Maiduguri,11.85,13.16,NG,Borno
Kontagora,10.4004,5.4699,NG,Niger
Jos,9.93,8.89,NG,Plateau
Abakaliki,6.3249,8.1137,NG,Ebonyi
Ife,7.4804,4.56,NG,Osun
Abeokuta,7.1604,3.35,NG,Ogun
Ikeja,6.5965,3.3421,NG,Lagos
Lagos,6.4433,3.3915,NG,Lagos
Ijebu Ode,6.8204,3.92,NG,Ogun
Iwo,7.63,4.18,NG,Osun
Oshogbo,7.7704,4.56,NG,Osun
Ilorin,8.49,4.55,NG,Kwara
Gusau,12.1704,6.66,NG,Zamfara
Yenagoa,4.9267,6.2676,NG,Bayelsa
Minna,9.62,6.55,NG,Niger
Ado Ekiti,7.6304,5.22,NG,Ekiti
Ibadan,7.38,3.93,NG,Oyo
Iseyin,7.97,3.59,NG,Oyo
Funtua,11.5204,7.32,NG,Katsina
Katsina,12.9904,7.6,NG,Katsina
Oyo,7.8504,3.93,NG,Oyo
Ogbomosho,8.13,4.24,NG,Oyo
Benin City,6.3405,5.62,NG,Edo
Keffi,8.849,7.8736,NG,Nasarawa
Lafia,8.4904,8.52,NG,Nasarawa
Ondo,7.0904,4.84,NG,Ondo
Lokoja,7.8004,6.7399,NG,Kogi
Sokoto,13.06,5.24,NG,Sokoto
Kaduna,10.52,7.44,NG,Kaduna
Kano,12,8.52,NG,Kano
Zaria,11.08,7.71,NG,Kaduna
Ikare,7.5304,5.76,NG,Ondo
Owo,7.2004,5.59,NG,Ondo
Dutse,11.7992,9.3503,NG,Jigawa
Idah,7.1104,6.7399,NG,Kogi
Mubi,10.2703,13.27,NG,Adamawa
Orlu,5.7837,7.0333,NG,Imo
Bama,11.5204,13.69,NG,Borno
Bauchi,10.3104,9.84,NG,Bauchi
Makurdi,7.73,8.53,NG,Benue
Oturkpo,7.1904,8.13,NG,Benue
Onitsha,6.1404,6.78,NG,Anambra
Awka,6.2104,7.07,NG,Anambra
Enugu,6.45,7.5,NG,Enugu
Biu,10.6204,12.19,NG,Borno
Owerri,5.493,7.026,NG,Imo
Calabar,4.9604,8.33,NG,Cross River
Sapele,5.8904,5.68,NG,Delta
Opobo,4.5704,7.56,NG,Akwa Ibom
Aba,5.1004,7.35,NG,Abia
Umuahia,5.532,7.486,NG,Abia
Warri,5.52,5.76,NG,Delta
Asaba,6.1985,6.7274,NG,Delta
Bida,9.0804,6.01,NG,Niger
Kumo,10.0457,11.2131,NG,Gombe
Azare,11.6804,10.19,NG,Bauchi
Gashua,12.8705,11.04,NG,Yobe
Yola,9.21,12.48,NG,Adamawa
Nguru,12.8804,10.45,NG,Yobe
Jalingo,8.9004,11.36,NG,Taraba
Numan,9.4604,12.04,NG,Adamawa
Birnin Kebbi,12.4504,4.1999,NG,Kebbi
Managua,12.153,-86.2685,NI,Managua
San Juan de Nicaragua,10.9204,-83.7,NI,Río San Juan
San Juan del Sur,11.25,-85.86,NI,Rivas
San Carlos,11.2,-84.8333,NI,Río San Juan
Juigalpa,12.11,-85.38,NI,Chontales
Boaco,12.47,-85.66,NI,Boaco
Granada,11.9337,-85.95,NI,Granada
Puerto Cabezas,14.0333,-83.3834,NI,Caribe Norte
Jinotepe,11.846,-86.195,NI,Carazo
Jinotega,13.091,-86,NI,Jinotega
Leon,12.4356,-86.8794,NI,León
Esteli,13.09,-86.36,NI,Estelí
Somoto,13.476,-86.583,NI,Madriz
Chinandega,12.6304,-87.13,NI,Chinandega
Ocotal,13.63,-86.473,NI,Nueva Segovia
Masaya,11.969,-86.095,NI,Masaya
Bluefields,12,-83.7649,NI,Caribe Sur
Rivas,11.4404,-85.82,NI,Rivas
Matagalpa,12.9171,-85.9167,NI,Matagalpa
Maastricht,50.853,5.677,NL,Limburg
Amsterdam,52.35,4.9166,NL,Noord-Holland
The Hague,52.08,4.27,NL,Zuid-Holland
Haarlem,52.3804,4.63,NL,Noord-Holland
Groningen,53.2204,6.58,NL,Groningen
Middelburg,51.502,3.61,NL,Zeeland
Lelystad,52.5176,5.474,NL,Flevoland
Arnhem,51.988,5.923,NL,Gelderland
Assen,53,6.55,NL,Drenthe
's-Hertogenbosch,51.6833,5.3167,NL,Noord-Brabant
Zwolle,52.524,6.097,NL,Overijssel
Utrecht,52.1003,5.12,NL,Utrecht
Leeuwarden,53.2504,5.7834,NL,Fryslân
Rotterdam,51.92,4.48,NL,Zuid-Holland
Eindhoven,51.43,5.5,NL,Noord-Brabant
Tromso,69.6351,18.992,NO,Troms
Molde,62.7483,7.1833,NO,Møre og Romsdal
Vossavangen,60.63,6.441,NO,Hordaland
Oslo,59.9167,10.75,NO,Oslo
Lillehammer,61.1333,10.5,NO,Oppland
Baerum,59.9135,11.3472,NO,Akershus
Stavanger,58.97,5.68,NO,Rogaland
Hermansverk,61.1833,6.85,NO,Sogn og Fjordane
Leikanger,61.1833,6.85,NO,Sogn og Fjordane
Kristiansand,58.1666,8,NO,Vest-Agder
Bergen,60.391,5.3245,NO,Hordaland
Skien,59.2,9.6,NO,Telemark
Arendal,58.4648,8.766,NO,Aust-Agder
Hamar,60.82,11.069,NO,Hedmark
Tonsberg,59.264,10.421,NO,Vestfold
Drammen,59.7572,10.1907,NO,Buskerud
Bodo,67.2468,14.399,NO,Nordland
Haugesund,59.4119,5.2775,NO,Rogaland
Svolvaer,68.2333,14.5667,NO,Nordland
Narvik,68.3832,17.29,NO,Nordland
Alesund,62.5454,6.388,NO,Møre og Romsdal
Hammerfest,70.6613,23.688,NO,Finnmark
Harstad,68.7879,16.5156,NO,Troms
Finnsnes,69.2406,18.0086,NO,Troms
Alta,69.9666,23.2417,NO,Finnmark
Kirkenes,69.725,30.0516,NO,Finnmark
Sandnes,58.8454,5.69,NO,Rogaland
Gjovik,60.8,10.7,NO,Oppland
Mo i Rana,66.3166,14.1667,NO,Nordland
Sarpsborg,59.2833,11.1167,NO,Østfold
Moss,59.437,10.6692,NO,Østfold
Vadso,70.0966,29.7657,NO,Finnmark
Rorvik,64.868,11.2053,NO,
Namsos,64.4833,11.5,NO,
Trondheim,63.4167,10.4167,NO,
Steinkjer,64.0171,11.5,NO,
Jumla,29.25,82.2167,NP,
Salyan,28.35,82.1833,NP,
Kathmandu,27.7167,85.3166,NP,Bāgmatī
Bhairawa,27.5333,83.3833,NP,
Pokhara,28.264,83.972,NP,
Nepalganj,28.0503,81.6167,NP,
Hetauda,27.4167,85.0334,NP,
Dandeldhura,29.3,80.6,NP,
Baglung,28.2667,83.5833,NP,
Ramechhap,27.326,86.087,NP,Janakpur
Lalitpur,27.6666,85.3333,NP,
Biratnagar,26.4837,87.2833,NP,
Rajbiraj,26.5333,86.7333,NP,
Bhimphedi,27.551,85.13,NP,
Ilam,26.908,87.926,NP,
Dhangarhi,28.695,80.593,NP,
Birganj,27.0004,84.8666,NP,
Alofi,-19.0167,-169.9167,NU,
Masterton,-40.9439,175.6456,NZ,Wellington
Gore,-46.0947,168.9604,NZ,Southland
Te Anau,-45.4074,167.7585,NZ,Southland
Invercargill,-46.4094,168.365,NZ,Southland
Ashburton,-43.8983,171.7486,NZ,Canterbury
Timaru,-44.3972,171.2425,NZ,Canterbury
Kaikoura,-42.4012,173.6897,NZ,Canterbury
Christchurch,-43.535,172.63,NZ,Canterbury
Queenstown,-45.0227,168.7251,NZ,Otago
Porirua,-41.1219,174.8524,NZ,Wellington
Wanaka,-44.698,169.1449,NZ,Otago
Nelson,-41.2926,173.2474,NZ,Nelson
Picton,-41.2805,174.0166,NZ,Marlborough
Hamilton,-37.7783,175.2896,NZ,Waikato
Dunedin,-45.8854,170.491,NZ,Otago
Thames,-37.1384,175.5853,NZ,Waikato
Lower Hutt,-41.2037,174.9123,NZ,Wellington
Palmerston North,-40.3527,175.6072,NZ,Manawatu-Wanganui
Wanganui,-39.9326,175.0393,NZ,Manawatu-Wanganui
Westport,-41.7638,171.6028,NZ,West Coast
Hokitika,-42.7072,171.01,NZ,West Coast
Greymouth,-42.4716,171.2231,NZ,West Coast
Paraparaumu,-40.9034,174.9989,NZ,Wellington
Wellington,-41.3,174.7833,NZ,
Upper Hutt,-41.1355,175.029,NZ,Wellington
Levin,-40.6124,175.2772,NZ,Manawatu-Wanganui
Rotorua,-38.1317,176.2483,NZ,Bay of Plenty
Tauranga,-37.6964,176.1536,NZ,Bay of Plenty
Waitangi,-44.0263,-176.3696,NZ,Chatham Islands
Taupo,-38.693,176.0771,NZ,Waikato
Whakatane,-37.9574,176.9828,NZ,Bay of Plenty
Kerikeri,-35.2285,173.9507,NZ,Northland
Whangarei,-35.7256,174.323,NZ,Northland
Pukekohe,-37.2015,174.9033,NZ,
Auckland,-36.8481,174.763,NZ,Auckland
Waitakere,-36.8524,174.5543,NZ,Auckland
Cambridge,-37.8894,175.4703,NZ,Waikato
Kaitaia,-35.1099,173.2727,NZ,Northland
Gisborne,-38.6633,178.0181,NZ,Gisborne
Turangi,-38.9889,175.8142,NZ,Waikato
Tokoroa,-38.2245,175.8705,NZ,Waikato
Manukau,-37,174.885,NZ,Auckland
Napier,-39.49,176.9265,NZ,Hawke’s Bay
North Shore,-36.7913,174.7758,NZ,Auckland
Oban,-46.8876,168.1666,NZ,Southland
New Plymouth,-39.0556,174.0748,NZ,Taranaki
Hawera,-39.5795,174.278,NZ,Taranaki
Kaiapoi,-43.3813,172.651,NZ,Canterbury
Mirbat,16.9924,54.6918,OM,Z̧ufār
Nizwa,22.9264,57.5314,OM,Ad Dākhilīyah
Ar Rustaq,23.3908,57.4244,OM,Janūb al Bāţinah
Hayma',19.9333,56.3167,OM,Al Wusţá
Sur,22.5667,59.5289,OM,Janūb ash Sharqīyah
Khasab,26.1799,56.2477,OM,Musandam
Salalah,17.0255,54.0852,OM,Z̧ufār
Muscat,23.6133,58.5933,OM,Masqaţ
Suhar,24.3643,56.7468,OM,Shamāl al Bāţinah
Ibra',22.6906,58.5334,OM,Shamāl ash Sharqīyah
Suhar,24.362,56.7344,OM,Shamāl al Bāţinah
Alayat Samail,23.3032,57.9782,OM,Ad Dākhilīyah
Ibri,23.2254,56.517,OM,Ad Dākhilīyah
Al Buraymi,24.2611,55.7903,OM,Al Buraymī
As Sib,23.6802,58.1825,OM,Masqaţ
Dawwah,20.633,58.908,OM,Janūb ash Sharqīyah
Balboa,8.95,-79.5667,PA,Panamá
Panama City,8.968,-79.533,PA,Panamá
La Chorrera,8.8803,-79.7833,PA,Panamá Oeste
Colon,9.365,-79.875,PA,Colón
Jaque,7.519,-78.166,PA,Darién
La Palma,8.3982,-78.1402,PA,Darién
Penonome,8.51,-80.36,PA,Coclé
Union Choco,8.0989,-77.6085,PA,Emberá-Wounaan
David,8.4333,-82.4333,PA,Chiriquí
Puerto Armuelles,8.28,-82.87,PA,Chiriquí
Santiago,8.1004,-80.9833,PA,Veraguas
Las Tablas,7.7604,-80.28,PA,Los Santos
Chitre,7.97,-80.42,PA,Herrera
Buabidi,8.4746,-81.6983,PA,Ngöbe-Buglé
Bocas del Toro,9.3354,-82.2475,PA,Bocas del Toro
Almirante,9.3,-82.4,PA,Bocas del Toro
El Porvenir,9.5417,-78.972,PA,Kuna Yala
Trujillo,-8.12,-79.02,PE,La Libertad
Lima,-12.048,-77.0501,PE,Lima
Abancay,-13.6396,-72.89,PE,Apurímac
Nuevo Rocafuerte,-0.9329,-75.4,PE,Loreto
Arequipa,-16.42,-71.53,PE,Arequipa
Huaura,-11.06,-77.6,PE,Lima
Tournavista,-8.9322,-74.7052,PE,Huánuco
Jaen,-5.7096,-78.81,PE,Cajamarca
Huamachuco,-7.81,-78.0499,PE,La Libertad
Chiclayo,-6.7629,-79.8366,PE,Lambayeque
Motupe,-6.15,-79.71,PE,Lambayeque
Lamas,-6.43,-76.52,PE,San Martín
Juanjui,-7.1696,-76.74,PE,San Martín
Olmos,-5.9796,-79.75,PE,Lambayeque
Moyobamba,-6.0496,-76.9667,PE,San Martín
Tarapoto,-6.51,-76.48,PE,San Martín
Chulucanas,-5.0896,-80.17,PE,Piura
Huaraz,-9.53,-77.53,PE,Ancash
Chota,-6.5496,-78.65,PE,Cajamarca
Callao,-12.07,-77.135,PE,Callao
Tarma,-11.41,-75.73,PE,Junín
Ilave,-16.0796,-69.67,PE,Puno
Puno,-15.8329,-70.0333,PE,Puno
Urubamba,-13.3042,-72.1166,PE,Cusco
La Oroya,-11.52,-75.94,PE,Junín
San Ramon,-11.1296,-75.34,PE,Junín
Cerro de Pasco,-10.69,-76.27,PE,Pasco
Jauja,-11.7996,-75.5,PE,Junín
Cajamarca,-7.15,-78.53,PE,Cajamarca
Satipo,-11.26,-74.69,PE,Junín
Ilo,-17.64,-71.34,PE,Moquegua
Gueppi,-0.1166,-75.23,PE,Loreto
Otuzco,-7.9,-78.57,PE,La Libertad
Moquegua,-17.19,-70.94,PE,Moquegua
Andoas,-2.9021,-76.4025,PE,Loreto
Salaverry,-8.22,-78.99,PE,La Libertad
Pativilca,-10.6996,-77.8,PE,Lima
Soldado Bartra,-2.5161,-75.7666,PE,Loreto
Puca Urco,-2.3328,-71.9167,PE,Loreto
Tumbes,-3.57,-80.46,PE,Tumbes
Ica,-14.068,-75.7255,PE,Ica
Sullana,-4.8896,-80.68,PE,Piura
Cusco,-13.525,-71.9722,PE,Cusco
Santo Tomas,-14.46,-72.08,PE,Cusco
Puquio,-14.7,-74.13,PE,Ayacucho
Juliaca,-15.5,-70.14,PE,Puno
Huancayo,-12.08,-75.2,PE,Junín
Piura,-5.21,-80.63,PE,Piura
Paita,-5.09,-81.12,PE,Piura
Tingo Maria,-9.2896,-75.99,PE,Huánuco
Huanuco,-9.92,-76.24,PE,Huánuco
Sicuani,-14.2896,-71.23,PE,Cusco
Desaguadero,-16.5646,-69.045,PE,Puno
Cajabamba,-7.6196,-78.04,PE,Cajamarca
Putina,-15.47,-69.43,PE,Puno
Pacasmayo,-7.4006,-79.5706,PE,La Libertad
Caballococha,-3.9163,-70.5083,PE,Loreto
Tocache,-8.1796,-76.52,PE,San Martín
Pucallpa,-8.3689,-74.535,PE,Ucayali
Junin,-11.1496,-76.01,PE,Junín
Camana,-16.6196,-72.72,PE,Arequipa
Chincha Alta,-13.4196,-76.14,PE,Ica
Nauta,-4.57,-73.78,PE,Loreto
Iquitos,-3.75,-73.25,PE,Loreto
Puerto Maldonado,-12.6,-69.1833,PE,Madre de Dios
Requena,-5.0696,-73.91,PE,Loreto
Casma,-9.44,-78.21,PE,Ancash
Ayaviri,-14.8796,-70.6,PE,Puno
Chosica,-11.93,-76.71,PE,Lima
Ayacucho,-13.175,-74.22,PE,Ayacucho
Huancavelica,-12.79,-74.99,PE,Huancavelica
Huanta,-12.9496,-74.25,PE,Ayacucho
Chilca,-12.5196,-76.74,PE,Lima
Chancay,-11.5596,-77.27,PE,Lima
Chimbote,-9.07,-78.57,PE,Ancash
Nasca,-14.83,-74.94,PE,Ica
Mollendo,-17.02,-72.02,PE,Arequipa
Huarmey,-10.0696,-78.16,PE,Ancash
Santiago,-14.1896,-75.74,PE,Ica
Coracora,-15.0196,-73.79,PE,Ayacucho
Pimentel,-6.8296,-79.93,PE,Lambayeque
Ferrenafe,-6.63,-79.8,PE,Lambayeque
Talara,-4.58,-81.28,PE,Piura
Sechura,-5.5596,-80.82,PE,Piura
Pisco,-13.71,-76.22,PE,Ica
Contamana,-7.34,-75.02,PE,Loreto
Chachapoyas,-6.2296,-77.87,PE,Amazonas
Huacho,-11.11,-77.6199,PE,Lima
Tacna,-18,-70.25,PE,Tacna
Papeete,-17.5334,-149.5667,PF,
Port Moresby,-9.4647,147.1925,PG,National Capital
Kieta,-6.2163,155.6333,PG,Bougainville
Sohano,-5.4297,154.6711,PG,Bougainville
Wewak,-3.5535,143.6367,PG,East Sepik
Kavieng,-2.5813,150.813,PG,New Ireland
Lorengau,-2.032,147.28,PG,Manus
Hoskins,-5.4746,150.41,PG,West New Britain
Abau,-10.0426,148.565,PG,Central
Kimbe,-5.55,150.143,PG,West New Britain
Alotau,-10.3021,150.4591,PG,Milne Bay
Daru,-9.1092,143.2337,PG,Western
Mt. Hagen,-5.8632,144.2168,PG,Western Highlands
Lae,-6.733,146.99,PG,Morobe
Goroka,-6.0833,145.3855,PG,Eastern Highlands
Madang,-5.2248,145.7853,PG,Madang
Arawa,-6.228,155.566,PG,Bougainville
Kerema,-7.927,145.838,PG,Gulf
Vanimo,-2.69,141.304,PG,West Sepik
Rabaul,-4.2055,152.1434,PG,East New Britain
Popondetta,-8.7692,148.2484,PG,Northern
Wabag,-5.49,143.718,PG,Enga
Mendi,-6.1444,143.6452,PG,Southern Highlands
Kundiawa,-6.023,144.96,PG,Chimbu
Alabel,6.1018,125.2905,PH,Sarangani
Ozamis,8.1462,123.8444,PH,Misamis Occidental
Laoag,18.1988,120.5936,PH,Ilocos Norte
Marawi City,8.0034,124.2839,PH,Lanao del Sur
Cadiz,10.9587,123.3086,PH,Negros Occidental
Malaybalay,8.1575,125.1278,PH,Bukidnon
Calbayog,12.0672,124.6042,PH,Samar
Gingoog,8.8304,125.13,PH,Misamis Oriental
Tagum,7.3821,125.8017,PH,Davao del Norte
Roxas,11.5853,122.7511,PH,Capiz
San Pablo,14.0696,121.3226,PH,Laguna
San Carlos,10.5504,123.38,PH,Negros Occidental
City of Isabela,6.7041,121.9712,PH,Basilan
Cabanatuan,15.5021,120.9617,PH,Nueva Ecija
Baguio City,16.43,120.5699,PH,Baguio
Manila,14.6042,120.9822,PH,
Makati City,14.5501,121.036,PH,Makati
Pasig City,14.5604,121.0812,PH,Pasig
City of Paranaque,14.4978,120.9907,PH,Parañaque
Baler,15.7589,121.5607,PH,Aurora
Bangued,17.5982,120.6155,PH,Abra
Balanga,14.6761,120.5361,PH,Bataan
Boac,13.4463,121.84,PH,Marinduque
Malita,6.415,125.6117,PH,Davao Occidental
Malolos,14.8443,120.8104,PH,Bulacan
Mati,6.9551,126.2166,PH,Davao Oriental
Batangas,13.7817,121.0217,PH,Batangas
Bayombong,16.4812,121.1497,PH,Nueva Vizcaya
Angeles,15.1451,120.5451,PH,Angeles
Bacolod,10.6317,122.9817,PH,Bacolod
Mandaue City,10.3237,123.9436,PH,Mandaue
Bongao,5.0292,119.7731,PH,Tawi-Tawi
Bontoc,17.0899,120.978,PH,Mountain
Borongan,11.6081,125.4319,PH,Eastern Samar
Butuan,8.9495,125.5436,PH,Butuan
Cabadbaran,9.1236,125.5344,PH,Agusan del Norte
Cabarroguis,16.5111,121.5212,PH,Quirino
Cagayan de Oro,8.4508,124.6853,PH,Cagayan de Oro
Calapan,13.4108,121.1797,PH,Oriental Mindoro
Caloocan City,14.6492,120.9826,PH,Caloocan
Catarman,12.4989,124.6377,PH,Northern Samar
Catbalogan,11.7753,124.8861,PH,Samar
Cebu,10.32,123.9001,PH,Cebu
Cotabato,7.2169,124.2484,PH,Cotabato
Daet,14.1122,122.9553,PH,Camarines Norte
Dagupan,16.0479,120.3408,PH,Dagupan
Davao,7.11,125.63,PH,Davao
Digos,6.7497,125.3572,PH,Davao del Sur
Dipolog,8.5883,123.3409,PH,Zamboanga del Norte
Dumaguete City,9.307,123.3074,PH,Negros Oriental
General Santos,6.1108,125.1747,PH,General Santos
Iba,15.3276,119.978,PH,Zambales
Ilagan,17.1485,121.8892,PH,Isabela
Iligan,8.1712,124.2154,PH,Iligan
Iloilo,10.705,122.545,PH,Iloilo
Ipil,7.7844,122.5861,PH,Zamboanga Sibugay
Jolo,6.0522,121.0022,PH,Sulu
Jordan,10.6584,122.5963,PH,Guimaras
Kabugao,18.0231,121.184,PH,Apayao
Kalibo,11.7086,122.3648,PH,Aklan
Kidapawan,7.0083,125.0894,PH,Cotabato
Lagawe,16.8,121.1192,PH,Ifugao
La Trinidad,16.4556,120.5903,PH,Benguet
Lapu-Lapu City,10.3103,123.9494,PH,Lapu-Lapu
Legazpi,13.17,123.75,PH,Albay
Lingayen,16.0218,120.2319,PH,Pangasinan
Lucena,13.9348,121.6127,PH,Lucena
Maasin,10.1336,124.8447,PH,Southern Leyte
Malabon,14.6691,120.972,PH,Malabon
Mambajao,9.2504,124.7156,PH,Camiguin
Mamburao,13.2233,120.596,PH,Occidental Mindoro
Mandaluyong City,14.5832,121.0409,PH,Mandaluyong
Marikina City,14.6414,121.1118,PH,Marikina
Masbate,12.3687,123.6225,PH,Masbate
Muntinlupa City,14.4135,121.0263,PH,Muntinlupa
Nabunturan,7.6029,125.9629,PH,Compostela Valley
Naga,13.6192,123.1814,PH,Naga
Naval,11.5612,124.3952,PH,Biliran
Navotas,14.6477,120.9591,PH,Navotas
Olongapo,14.8296,120.2828,PH,Olongapo
Ormac,11.0643,124.6075,PH,Ormoc
Oroquieta,8.4859,123.8048,PH,Misamis Occidental
Pagadian,7.853,123.507,PH,Zamboanga del Sur
Palayan City,15.5415,121.0848,PH,Nueva Ecija
Pasay City,14.5504,121,PH,Pasay
Pili,13.7177,123.7448,PH,Camarines Sur
Prosperidad,8.58,125.8964,PH,Agusan del Sur
Puerto Princesa,9.7543,118.7444,PH,Puerto Princesa
Quezon City,14.6504,121.03,PH,Quezon
Romblon,12.5751,122.2708,PH,Romblon
San Fernando,16.6186,120.3194,PH,La Union
San Fernando,15.0343,120.6844,PH,Pampanga
San Jose,10.18,125.5683,PH,Dinagat Islands
San Juan,14.6,121.0333,PH,San Juan
Santa Cruz,14.1167,121.2833,PH,Laguna
Santiago,16.6881,121.5472,PH,Santiago
Shariff Aguak,6.8647,124.4417,PH,Maguindanao
Siquijor,9.2142,123.515,PH,Siquijor
Sorsogon,12.9708,124.0053,PH,Sorsogon
Surigao,9.7843,125.4888,PH,Surigao del Norte
Tabuk,17.4084,121.2785,PH,Kalinga
Tacloban,11.2504,125,PH,Tacloban
Taguig City,14.5289,121.0723,PH,Taguig
Tagum,7.4475,125.8094,PH,Davao del Norte
Tandag,9.0783,126.1986,PH,Surigao del Sur
Tarlac,15.4838,120.5834,PH,Tarlac
Trece Martires City,14.2832,120.8677,PH,Cavite
Tubod,8.0555,123.7904,PH,Lanao del Norte
Tuguegarao,17.6131,121.7269,PH,Cagayan
Valenzuela,14.6936,120.9656,PH,Valenzuela
Vigan,17.5747,120.3869,PH,Ilocos Sur
Virac,13.5848,124.2374,PH,Catanduanes
Zamboanga,6.92,122.08,PH,Zamboanga
San Jose,10.745,121.9415,PH,Antique
Basco,20.4486,121.9702,PH,Batanes
Antipolo,14.5886,121.1757,PH,Rizal
Koronadal,6.2541,124.9922,PH,South Cotabato
Isulan,6.6294,124.6051,PH,Sultan Kudarat
Karachi,24.87,66.99,PK,Sindh
Gilgit,35.9171,74.3,PK,Gilgit-Baltistan
Chaman,30.925,66.4463,PK,Balochistān
Turbat,25.9918,63.0718,PK,Balochistān
Islamabad,33.7,73.1666,PK,Islāmābād
Zhob,31.349,69.4386,PK,Balochistān
Quetta,30.22,67.025,PK,Balochistān
Hyderabad,25.38,68.375,PK,Sindh
Mardan,34.2,72.04,PK,Khyber Pakhtunkhwa
Saidu,34.75,72.35,PK,Khyber Pakhtunkhwa
Jhang,31.2804,72.325,PK,Punjab
Kasur,31.1254,74.455,PK,Punjab
Lahore,31.56,74.35,PK,Punjab
Nawabshah,26.2454,68.4,PK,Sindh
Chiniot,31.72,72.98,PK,Punjab
Bannu,32.989,70.5986,PK,Khyber Pakhtunkhwa
Sadiqabad,28.3006,70.1302,PK,Punjab
Sukkur,27.7136,68.8486,PK,Sindh
Peshawar,34.005,71.535,PK,Khyber Pakhtunkhwa
Bahawalpur,29.39,71.675,PK,Punjab
Sargodha,32.0854,72.675,PK,Punjab
Dera Ismail Khan,31.829,70.8986,PK,Khyber Pakhtunkhwa
Kundian,32.4522,71.4718,PK,Punjab
Gwadar,25.139,62.3286,PK,Balochistān
Parachinar,33.8992,70.1008,PK,Federally Administered Tribal Areas
Larkana,27.5618,68.2068,PK,Sindh
Kohat,33.6027,71.4327,PK,Khyber Pakhtunkhwa
Rahim Yar Khan,28.4202,70.2952,PK,Punjab
Mirput Khas,25.5318,69.0118,PK,Sindh
Dera Ghazi Khan,30.0604,70.6351,PK,Punjab
Gujranwala,32.1604,74.185,PK,Punjab
Rawalpindi,33.6,73.04,PK,Punjab
Gujrat,32.58,74.08,PK,Punjab
Sialkote,32.52,74.56,PK,Punjab
Mansehra,34.3418,73.1968,PK,Khyber Pakhtunkhwa
Abbottabad,34.1495,73.1995,PK,Khyber Pakhtunkhwa
Multan,30.2,71.455,PK,Punjab
Sheikhu Pura,31.72,73.99,PK,Punjab
Sahiwal,30.6717,73.1118,PK,Punjab
Okara,30.8104,73.45,PK,Punjab
Faisalabad,31.41,73.11,PK,Punjab
Lodz,51.775,19.4514,PL,Łódzkie
Lublin,51.2504,22.5727,PL,Lubelskie
Wroclaw,51.1104,17.03,PL,Dolnośląskie
Bialystok,53.1504,23.17,PL,Podlaskie
Poznan,52.4058,16.8999,PL,Wielkopolskie
Zielona Gora,51.9504,15.5,PL,Lubuskie
Bydgoszcz,53.1204,18.01,PL,Kujawsko-Pomorskie
Szczecin,53.4204,14.53,PL,Zachodniopomorskie
Gdansk,54.36,18.64,PL,Pomorskie
Olsztyn,53.8,20.48,PL,Warmińsko-Mazurskie
Katowice,50.2604,19.02,PL,Śląskie
Rzeszow,50.0705,22,PL,Podkarpackie
Krakow,50.06,19.96,PL,Małopolskie
Opole,50.685,17.9313,PL,Opolskie
Kielce,50.8904,20.66,PL,Świętokrzyskie
Gorzow Wielkopolski,52.7368,15.2288,PL,Lubuskie
Gdynia,54.5204,18.53,PL,Pomorskie
Grudziadz,53.4804,18.75,PL,Kujawsko-Pomorskie
Inowroclaw,52.7799,18.25,PL,Kujawsko-Pomorskie
Gliwice,50.3304,18.67,PL,Śląskie
Bytom,50.35,18.91,PL,Śląskie
Warsaw,52.25,21,PL,Mazowieckie
Elblag,54.19,19.4027,PL,Warmińsko-Mazurskie
Elk,53.8337,22.35,PL,Warmińsko-Mazurskie
Koszalin,54.2,16.1833,PL,Zachodniopomorskie
Saint-Pierre,46.7811,-56.1764,PM,
Adamstown,-25.0667,-130.0833,PN,
Funchal,32.65,-16.88,PT,Madeira
Setubal,38.53,-8.9,PT,Setúbal
Lisbon,38.7227,-9.1449,PT,Lisboa
Evora,38.56,-7.906,PT,Évora
Angra do Heroismo,38.6504,-27.2167,PT,Azores
Santarem,39.231,-8.682,PT,Santarém
Horta,38.5347,-28.6448,PT,Azores
Ponta Delgada,37.7483,-25.6666,PT,Azores
Porto,41.15,-8.62,PT,Porto
Faro,37.0171,-7.9333,PT,Faro
Vila Real,41.294,-7.737,PT,Vila Real
Aveiro,40.641,-8.651,PT,Aveiro
Guarda,40.541,-7.262,PT,Guarda
Viseu,40.657,-7.91,PT,Viseu
Braganca,41.808,-6.755,PT,Bragança
Viana Do Castelo,41.6962,-8.8441,PT,Viana do Castelo
Braga,41.555,-8.4213,PT,Braga
Beja,38.014,-7.863,PT,Beja
Castelo Branco,39.811,-7.488,PT,Castelo Branco
Portalegre,39.29,-7.423,PT,Portalegre
Coimbra,40.2004,-8.4167,PT,Coimbra
Leiria,39.739,-8.805,PT,Leiria
Covilha,40.2833,-7.5,PT,Castelo Branco
Portimao,37.1337,-8.5333,PT,Faro
Koror,7.3452,134.4695,PW,
Melekeok,7.4874,134.6265,PW,Melekeok
Ngerulmud,7.5,134.6242,PW,Melekeok
La Victoria,-22.2896,-57.94,PY,Alto Paraguay
General Eugenio Alejandrino Garay,-20.52,-62.21,PY,Boquerón
Bella Vista,-22.1296,-56.52,PY,Amambay
Nacunday,-26.02,-54.7699,PY,Alto Paraná
Mariscal Estigarribia,-22.03,-60.61,PY,Boquerón
Horqueta,-23.3396,-57.05,PY,Concepción
Capitan Pablo Lagerenza,-19.9161,-60.7833,PY,Alto Paraguay
Pozo Colorado,-23.43,-58.86,PY,Presidente Hayes
Belen,-23.4695,-57.24,PY,Concepción
Fuerte Olimpo,-21.0696,-57.9,PY,Alto Paraguay
Abai,-26.0296,-55.94,PY,Caazapá
Aregua,-25.3125,-57.3847,PY,Central
Caazapa,-26.2,-56.38,PY,Caazapá
Concepcion,-23.4064,-57.4344,PY,Concepción
Caacupe,-25.387,-57.14,PY,Cordillera
Villarrica,-25.75,-56.4333,PY,Guairá
Pedro Juan Caballero,-22.5446,-55.76,PY,Amambay
Encarnacion,-27.3472,-55.8739,PY,Itapúa
Coronel Oviedo,-25.45,-56.44,PY,Caaguazú
Ciudad del Este,-25.5167,-54.6161,PY,Alto Paraná
San Juan Bautista,-26.68,-57.15,PY,Misiones
Pilar,-26.8695,-58.3,PY,Ñeembucú
Paraguari,-25.62,-57.16,PY,Paraguarí
Villa Hayes,-25.09,-57.53,PY,Presidente Hayes
San Pedro,-24.09,-57.08,PY,San Pedro
Ype Jhu,-23.91,-55.46,PY,Canindeyú
Filadelfia,-22.34,-60.03,PY,Boquerón
Salto del Guaira,-24.0625,-54.3069,PY,Canindeyú
Asuncion,-25.2964,-57.6415,PY,Asunción
Puerto Pinasco,-22.64,-57.79,PY,Presidente Hayes
San Lorenzo,-25.34,-57.52,PY,Central
Ita,-25.5096,-57.36,PY,Central
Hohenau,-27.0795,-55.75,PY,Itapúa
Ypacarai,-25.41,-57.28,PY,Central
Rosario,-24.4196,-57.1,PY,San Pedro
Coronel Bogado,-27.17,-56.25,PY,Itapúa
Ygatimi,-24.0796,-55.5,PY,Canindeyú
Arroyos y Esteros,-25.05,-57.09,PY,Cordillera
Az Za`ayin,25.5774,51.4831,QA,Az̧ Z̧a‘āyin
Al Wakrah,25.1715,51.6034,QA,Al Wakrah
Al Khawr,25.6839,51.5058,QA,Al Khawr wa adh Dhakhīrah
Madinat ash Shamal,26.1293,51.2009,QA,Ash Shamāl
Umm Salal `Ali,25.4697,51.3975,QA,Umm Şalāl
Ar Rayyan,25.2919,51.4244,QA,Ar Rayyān
Doha,25.2866,51.533,QA,Ad Dawḩah
Ash Shihaniyah,25.3709,51.2226,QA,
St.-Benoit,-21.0335,55.7128,RE,
St.-Denis,-20.8789,55.4481,RE,
Drobeta-Turnu Severin,44.6459,22.6659,RO,Mehedinţi
Braila,45.292,27.969,RO,Brăila
Oradea,47.05,21.92,RO,Bihor
Timisoara,45.7588,21.2234,RO,Timiş
Resita,45.297,21.8865,RO,Caraş-Severin
Calarasi,44.2063,27.3259,RO,Călăraşi
Arad,46.17,21.32,RO,Arad
Alexandria,43.9016,25.2867,RO,Teleorman
Slobozia,44.57,27.382,RO,Ialomiţa
Baia Mare,47.6595,23.5791,RO,Maramureş
Tulcea,45.1993,28.7967,RO,Tulcea
Ploiesti,44.9469,26.0365,RO,Prahova
Piatra-Neamt,46.94,26.383,RO,Neamţ
Suceava,47.6377,26.2593,RO,Suceava
Botosani,47.7484,26.6597,RO,Botoşani
Constanta,44.2027,28.61,RO,Constanţa
Buzau,45.1565,26.8065,RO,Buzău
Galati,45.4559,28.0459,RO,Galaţi
Vaslui,46.6333,27.7333,RO,Vaslui
Sfintu-Gheorghe,45.868,25.793,RO,Covasna
Bacau,46.5784,26.9196,RO,Bacău
Focsani,45.6966,27.1865,RO,Vrancea
Bucharest,44.4334,26.0999,RO,Bucureşti
Brasov,45.6475,25.6072,RO,Braşov
Pitesti,44.8563,24.8758,RO,Argeş
Tirgu Mures,46.5582,24.5578,RO,Mureş
Deva,45.8833,22.9167,RO,Hunedoara
Cluj-Napoca,46.7884,23.5984,RO,Cluj
Rimnicu Vilcea,45.11,24.383,RO,Vâlcea
Sibiu,45.7971,24.1371,RO,Sibiu
Targu Jiu,45.045,23.274,RO,Gorj
Alba Lulia,46.077,23.58,RO,Alba
Giurgiu,43.93,25.84,RO,Giurgiu
Zalau,47.175,23.063,RO,Sălaj
Craiova,44.3263,23.8259,RO,Dolj
Hunedoara,45.75,22.9,RO,Hunedoara
Targoviste,44.938,25.459,RO,Dâmboviţa
Bistrita,47.138,24.513,RO,Bistriţa-Năsăud
Satu Mare,47.792,22.885,RO,Satu Mare
Slatina,44.435,24.371,RO,Olt
Miercurea Cuic,46.361,25.524,RO,Harghita
Iasi,47.1683,27.5749,RO,Iaşi
Belgrade,44.8186,20.468,RS,
Arandelovac,44.3077,20.5612,RS,Aranđelovac
Bela Palanka,43.2196,22.314,RS,Bela Palanka
Gadzin Han,43.2223,22.0333,RS,Gadžin Han
Nis,43.3304,21.9,RS,Niš
Svrljig,43.4129,22.1252,RS,Svrljig
Sokobanja,43.6453,21.8692,RS,Sokobanja
Boljevac,43.8321,21.9609,RS,Boljevac
Zajecar,43.9019,22.2755,RS,Zaječar
Bor,44.0819,22.0967,RS,Bor
Negotin,44.2264,22.5308,RS,Negotin
Kladovo,44.6073,22.6155,RS,Kladovo
Majdanpek,44.4228,21.9358,RS,Majdanpek
Golubac,44.6529,21.6308,RS,Golubac
Kucevo,44.4767,21.6712,RS,Kučevo
Zagubica,44.1979,21.7902,RS,Žagubica
Petrovac na Mlavi,44.3773,21.4198,RS,Petrovac na Mlavi
Despotovac,44.0932,21.444,RS,Despotovac
Svilajnac,44.2383,21.197,RS,Svilajnac
Doljevac,43.1968,21.8334,RS,Doljevac
Merosina,43.2813,21.7218,RS,Merošina
Aleksinac,43.5417,21.7078,RS,Aleksinac
Blace,43.297,21.2727,RS,Blace
Brus,43.3846,21.0289,RS,Brus
Krusevac,43.581,21.3352,RS,Kruševac
Aleksandrovac,43.4609,21.0539,RS,Aleksandrovac
Vrnjacka Banja,43.6223,20.8956,RS,Vrnjačka Banja
Trstenik,43.6169,21.0025,RS,Trstenik
Varvarin,43.7195,21.3712,RS,Varvarin
Cicevac,43.72,21.4436,RS,Ćićevac
Razanj,43.6744,21.5492,RS,Ražanj
Paracin,43.8592,21.4119,RS,Paraćin
Cuprija,43.9284,21.3745,RS,Ćuprija
Jagodina,43.9791,21.2583,RS,Jagodina
Rekovac,43.8609,21.0958,RS,Rekovac
Ada,45.8027,20.1285,RS,Ada
Alibunar,45.0789,20.9682,RS,Alibunar
Apatin,45.6709,18.9843,RS,Apatin
Prijepolje,43.3903,19.6506,RS,Prijepolje
Raca,44.2268,20.979,RS,Rača
Raska,43.2859,20.6135,RS,Raška
Ruma,45.0079,19.8171,RS,Ruma
Senta,45.9273,20.0789,RS,Senta
Secanj,45.3676,20.7732,RS,Sečanj
Sjenica,43.2735,20.0004,RS,Sjenica
Smederevo,44.6516,20.9258,RS,Smederevo
Smederevska Palanka,44.3654,20.9623,RS,Smederevska Palanka
Sombor,45.7742,19.1151,RS,Sombor
Srbobran,45.5481,19.7954,RS,Srbobran
Sremska Mitrovica,44.9764,19.6122,RS,Sremska Mitrovica
Sremski Karlovci,45.2021,19.9325,RS,Sremski Karlovci
Stara Pazova,44.9861,20.1597,RS,Stara Pazova
Subotica,46.07,19.68,RS,Subotica
Temerin,45.4095,19.8911,RS,Temerin
Titel,45.206,20.2949,RS,Titel
Topola,44.2544,20.6824,RS,Topola
Tutin,42.99,20.3334,RS,Tutin
Ub,44.4572,20.0762,RS,Ub
Uzice,43.8582,19.8441,RS,Užice
Valjevo,44.272,19.8874,RS,Valjevo
Veliko Gradiste,44.7638,21.5163,RS,Veliko Gradište
Vladimirci,44.6158,19.7843,RS,Vladimirci
Vrbas,45.5704,19.6479,RS,Vrbas
Vrsac,45.1175,21.2983,RS,Vršac
Zrenjanin,45.3786,20.3995,RS,Zrenjanin
Gornji Milanovac,44.0245,20.4586,RS,Gornji Milanovac
Indija,45.0482,20.0816,RS,Inđija
Irig,45.1001,19.8603,RS,Irig
Ivanjica,43.582,20.2284,RS,Ivanjica
Kanjiza,46.0635,20.0504,RS,Kanjiža
Kikinda,45.8323,20.4682,RS,Kikinda
Knic,43.927,20.7197,RS,Knić
Koceljeva,44.4687,19.8214,RS,Koceljeva
Kosjeric,43.9987,19.9079,RS,Kosjerić
Kovacica,45.1109,20.6236,RS,Kovačica
Kovin,44.7482,20.9766,RS,Kovin
Kragujevac,44.02,20.92,RS,Kragujevac
Kraljevo,43.7259,20.6896,RS,Kraljevo
Krupanj,44.3676,19.3633,RS,Krupanj
Kula,45.6109,19.5274,RS,Kula
Lajkovac,44.37,20.1644,RS,Lajkovac
Lapovo,44.1877,21.0969,RS,Lapovo
Ljig,44.2266,20.2394,RS,Ljig
Ljubovija,44.1896,19.3785,RS,Ljubovija
Loznica,44.5312,19.2427,RS,Loznica
Lucani,43.8608,20.1384,RS,Lučani
Mali Idos,45.7092,19.6663,RS,Mali Iđoš
Mali Zvornik,44.3992,19.1214,RS,Mali Zvornik
Malo Crnice,44.5603,21.2906,RS,Malo Crniće
Mionica,44.2524,20.0817,RS,Mionica
Nova Crnja,45.6685,20.6042,RS,Nova Crnja
Nova Varos,43.46,19.8117,RS,Nova Varoš
Novi Becej,45.6015,20.1364,RS,Novi Bečej
Novi Knezevac,46.041,20.0958,RS,Novi Kneževac
Novi Pazar,43.1375,20.5149,RS,Novi Pazar
Novi Sad,45.2504,19.8499,RS,Novi Sad
Odzaci,45.5076,19.2606,RS,Odžaci
Opovo,45.0522,20.4313,RS,Opovo
Osecina,44.3728,19.601,RS,Osečina
Pancevo,44.8713,20.6443,RS,Pančevo
Pecinci,44.9089,19.9664,RS,Pećinci
Plandiste,45.2292,21.1238,RS,Plandište
Pozarevac,44.6222,21.1826,RS,Požarevac
Pozega,43.8459,20.0368,RS,Požega
Priboj,43.5836,19.5258,RS,Priboj
Sid,45.1276,19.2267,RS,Šid
Sabac,44.7538,19.6876,RS,Šabac
Arilje,43.755,20.097,RS,Arilje
Bajina Basta,43.9709,19.5655,RS,Bajina Bašta
Batocina,44.1547,21.0799,RS,Batočina
Bac,45.3923,19.2367,RS,Bač
Backa Palanka,45.2519,19.3916,RS,Bačka Palanka
Backa Topola,45.8152,19.6369,RS,Bačka Topola
Backi Petrovac,45.3616,19.592,RS,Bački Petrovac
Bela Crkva,44.9015,21.4234,RS,Bela Crkva
Becej,45.6196,20.04,RS,Bečej
Bogatic,44.8376,19.4807,RS,Bogatić
Zitiste,45.4854,20.5507,RS,Žitište
Zabari,44.3562,21.2143,RS,Žabari
Zabalj,45.3741,20.0707,RS,Žabalj
Coka,45.9415,20.146,RS,Čoka
Cacak,43.8897,20.3301,RS,Čačak
Trgoviste,42.3514,22.0921,RS,Trgovište
Vranje,42.556,21.9002,RS,Vranje
Bujanovac,42.4606,21.7666,RS,Bujanovac
Presevo,42.3071,21.65,RS,Preševo
Bosilegrad,42.5005,22.4728,RS,Bosilegrad
Surdulica,42.6904,22.1704,RS,Surdulica
Vladicin Han,42.7082,22.0664,RS,Vladičin Han
Crna Trava,42.8071,22.3247,RS,Crna Trava
Vlasotince,42.9659,22.1272,RS,Vlasotince
Zitorada,43.1902,21.7134,RS,Žitorađa
Prokuplje,43.2383,21.5932,RS,Prokuplje
Babusnica,43.068,22.4115,RS,Babušnica
Dimitrovgrad,43.0155,22.7776,RS,Dimitrovgrad
Pirot,43.1617,22.5871,RS,Pirot
Knjazevac,43.5667,22.2539,RS,Knjaževac
Kursumlija,43.139,21.2735,RS,Kuršumlija
Medveda,42.842,21.5858,RS,Medveđa
Bojnik,43.0142,21.718,RS,Bojnik
Lebane,42.9171,21.7294,RS,Lebane
Leskovac,42.9976,21.9445,RS,Leskovac
Cajetina,43.7497,19.715,RS,Čajetina
Velika Plana,44.3323,21.0751,RS,Velika Plana
Beocin,45.1916,19.725,RS,Beočin 
Volgodonsk,47.51,42.1599,RU,Rostovskaya Oblast’
Saskylakh,71.9166,114.0833,RU,Sakha (Yakutiya)
Polevskoy,56.4434,60.188,RU,Sverdlovskaya Oblast’
Saranpaul,64.2505,60.97,RU,Khanty-Mansiyskiy Avtonomnyy Okrug-Yugra
Severnyy,67.6083,64.1233,RU,Komi
Pervouralsk,56.91,59.955,RU,Sverdlovskaya Oblast’
Novy Port,67.6983,72.9283,RU,Yamalo-Nenetskiy Avtonomnyy Okrug
Pugachev,52.0148,48.7944,RU,Saratovskaya Oblast’
Numto,63.6667,71.3333,RU,Khanty-Mansiyskiy Avtonomnyy Okrug-Yugra
Novy Urengoy,66.0833,76.6332,RU,Yamalo-Nenetskiy Avtonomnyy Okrug
Novyy Uoyin,56.135,111.7339,RU,Buryatiya
Nizhny Novgorod,56.333,44.0001,RU,Nizhegorodskaya Oblast’
Miass,54.9954,60.0949,RU,Chelyabinskaya Oblast’
Omsk,54.99,73.4,RU,Omskaya Oblast’
Naltchik,43.4981,43.6179,RU,Kabardino-Balkariya
Mirnyy,62.54,113.9614,RU,Sakha (Yakutiya)
Monchegorsk,67.9291,32.8287,RU,Murmanskaya Oblast’
Nyagan,62.1465,65.3814,RU,Khanty-Mansiyskiy Avtonomnyy Okrug-Yugra
Maykop,44.61,40.12,RU,Adygeya
Kirensk,57.7857,108.1119,RU,Irkutskaya Oblast’
Kolpino,59.73,30.65,RU,Sankt-Peterburg
Khorgo,73.4833,113.63,RU,Sakha (Yakutiya)
Kislovodsk,43.91,42.72,RU,Stavropol’skiy Kray
Guryevsk,54.2981,85.9377,RU,Kemerovskaya Oblast’
Ivdel,60.6936,60.4133,RU,Sverdlovskaya Oblast’
Gusinoozyorsk,51.2808,106.5004,RU,Buryatiya
Kamenka,53.1947,44.0444,RU,Penzenskaya Oblast’
Kargat,55.1959,80.2811,RU,Novosibirskaya Oblast’
Kasimov,54.9435,41.3931,RU,Ryazanskaya Oblast’
Kolomna,55.08,38.785,RU,Moskovskaya Oblast’
Khanty Mansiysk,61.0015,69.0015,RU,Khanty-Mansiyskiy Avtonomnyy Okrug-Yugra
Dimitrovgrad,54.2504,49.56,RU,Ul’yanovskaya Oblast’
Cheremkhovo,53.1588,103.0739,RU,Irkutskaya Oblast’
Gornyak,50.9881,81.4877,RU,Altayskiy Kray
Blagodarnyy,45.1047,43.4344,RU,Stavropol’skiy Kray
Bodaybo,57.965,114.329,RU,Irkutskaya Oblast’
Biysk,52.5341,85.18,RU,Altayskiy Kray
Abakan,53.7037,91.445,RU,Khakasiya
Angarsk,52.56,103.92,RU,Irkutskaya Oblast’
Birsk,55.4244,55.5444,RU,Bashkortostan
Pskov,57.83,28.3299,RU,Pskovskaya Oblast’
Smolensk,54.7827,32.0473,RU,Smolenskaya Oblast’
Put Lenina,68.5166,107.8,RU,Sakha (Yakutiya)
Kemerovo,55.34,86.09,RU,Kemerovskaya Oblast’
Kolpashevo,58.3004,82.9954,RU,Tomskaya Oblast’
Polyarnyy,69.2052,33.4502,RU,Murmanskaya Oblast’
St. Petersburg,59.939,30.316,RU,Sankt-Peterburg
Pyatigorsk,44.08,43.09,RU,Stavropol’skiy Kray
Nefteyugansk,61.0777,72.7027,RU,Khanty-Mansiyskiy Avtonomnyy Okrug-Yugra
Chernogorsk,53.8313,91.2227,RU,Khakasiya
Lensk,60.7253,114.947,RU,Sakha (Yakutiya)
Krasnoarmeysk,51.0174,45.6974,RU,Saratovskaya Oblast’
Saratov,51.58,46.03,RU,Saratovskaya Oblast’
Shira,54.4914,89.9531,RU,Khakasiya
Solnechnogorsk,56.1807,36.9809,RU,Moskovskaya Oblast’
Irkutsk,52.32,104.245,RU,Irkutskaya Oblast’
Noyabrsk,63.1665,75.6165,RU,Yamalo-Nenetskiy Avtonomnyy Okrug
Yurga,55.7258,84.8854,RU,Kemerovskaya Oblast’
Zelenokumsk,44.4091,43.8787,RU,Stavropol’skiy Kray
Olenek,68.525,112.45,RU,Sakha (Yakutiya)
Salekhard,66.535,66.61,RU,Yamalo-Nenetskiy Avtonomnyy Okrug
Borovichi,58.3978,33.8974,RU,Novgorodskaya Oblast’
Kaluga,54.5204,36.27,RU,Kaluzhskaya Oblast’
Izhevsk,56.85,53.23,RU,Udmurtiya
Volsk,52.0347,47.3743,RU,Saratovskaya Oblast’
Cherepovets,59.1404,37.91,RU,Vologodskaya Oblast’
Pallasovka,50.0477,46.8773,RU,Volgogradskaya Oblast’
Peregrebnoye,62.967,65.0859,RU,Khanty-Mansiyskiy Avtonomnyy Okrug-Yugra
Tyumen,57.14,65.53,RU,Tyumenskaya Oblast’
Toguchin,55.2377,84.3777,RU,Novosibirskaya Oblast’
Nadym,65.5298,72.5148,RU,Yamalo-Nenetskiy Avtonomnyy Okrug
Matochkin Shar,73.27,56.4497,RU,Arkhangel’skaya Oblast’
Kurtamysh,54.9087,64.4333,RU,Kurganskaya Oblast’
Barnaul,53.355,83.745,RU,Altayskiy Kray
Kimry,56.8691,37.3444,RU,Tverskaya Oblast’
Elista,46.3287,44.2087,RU,Kalmykiya
Gorno Altaysk,51.9613,85.9577,RU,Altay
Surgut,61.2599,73.425,RU,Khanty-Mansiyskiy Avtonomnyy Okrug-Yugra
Cheboksary,56.13,47.25,RU,Chuvashiya
Mariinsk,56.2108,87.7604,RU,Kemerovskaya Oblast’
Safonovo,55.1465,33.2161,RU,Smolenskaya Oblast’
Sayanogorsk,53.0894,91.4004,RU,Khakasiya
Roslavl,53.9509,32.8604,RU,Smolenskaya Oblast’
Rubtsovsk,51.52,81.21,RU,Altayskiy Kray
Slyudyanka,51.6538,103.6988,RU,Irkutskaya Oblast’
Laryak,61.1012,80.2514,RU,Khanty-Mansiyskiy Avtonomnyy Okrug-Yugra
Abaza,52.669,90.0954,RU,Khakasiya
Velikiy Novgorod,58.5,31.33,RU,Novgorodskaya Oblast’
Klin,56.3431,36.6987,RU,Moskovskaya Oblast’
Bagdarin,54.4333,113.6,RU,Buryatiya
Kovrov,56.3604,41.33,RU,Vladimirskaya Oblast’
Sokol,59.4648,40.1144,RU,Vologodskaya Oblast’
Engels,51.5004,46.12,RU,Saratovskaya Oblast’
Gatchina,59.5707,30.1333,RU,Leningradskaya Oblast’
Nizhnyaya Tura,58.6436,59.7983,RU,Sverdlovskaya Oblast’
Mundybash,53.2333,87.3167,RU,Kemerovskaya Oblast’
Prokopyevsk,53.9,86.71,RU,Kemerovskaya Oblast’
Kiselevsk,54,86.64,RU,Kemerovskaya Oblast’
Novokuznetsk,53.75,87.115,RU,Kemerovskaya Oblast’
Luga,58.7363,29.839,RU,Leningradskaya Oblast’
Moscow,55.7522,37.6155,RU,Moskva
Slavgorod,53.0049,78.6696,RU,Altayskiy Kray
Kulunda,52.5827,78.9473,RU,Altayskiy Kray
Krasnoturinsk,59.7948,60.4848,RU,Sverdlovskaya Oblast’
Vladikavkaz,43.0504,44.67,RU,North Ossetia
Amderma,69.763,61.6677,RU,Nenetskiy Avtonomnyy Okrug
Varnek,69.7301,60.0636,RU,Nenetskiy Avtonomnyy Okrug
Leninsk Kuznetsky,54.66,86.17,RU,Kemerovskaya Oblast’
Mozdok,43.7543,44.6544,RU,North Ossetia
Tashtagol,52.7918,87.8677,RU,Kemerovskaya Oblast’
Megion,61.0608,76.0953,RU,Khanty-Mansiyskiy Avtonomnyy Okrug-Yugra
Balashov,51.5535,43.1631,RU,Saratovskaya Oblast’
Zima,53.9331,102.0331,RU,Irkutskaya Oblast’
Samara,53.195,50.1513,RU,Samarskaya Oblast’
Vyazma,55.2122,34.2918,RU,Smolenskaya Oblast’
Igrim,63.1933,64.4194,RU,Khanty-Mansiyskiy Avtonomnyy Okrug-Yugra
Norilsk,69.34,88.225,RU,Krasnoyarskiy Kray
Belebey,54.1291,54.1187,RU,Bashkortostan
Kalachinsk,55.0487,74.5683,RU,Omskaya Oblast’
Vologda,59.21,39.92,RU,Vologodskaya Oblast’
Orenburg,51.78,55.11,RU,Orenburgskaya Oblast’
Vyborg,60.7039,28.7549,RU,Leningradskaya Oblast’
Svetogorsk,61.1013,28.9177,RU,Leningradskaya Oblast’
Cherlak,54.1605,74.82,RU,Omskaya Oblast’
Mezen,65.8522,44.24,RU,Arkhangel’skaya Oblast’
Buzuluk,52.7821,52.2618,RU,Orenburgskaya Oblast’
Kupina,54.3592,77.2742,RU,Novosibirskaya Oblast’
Karasuk,53.7273,78.0219,RU,Novosibirskaya Oblast’
Saransk,54.1704,45.18,RU,Mordoviya
Barabinsk,55.3573,78.3519,RU,Novosibirskaya Oblast’
Bukachacha,52.9833,116.9166,RU,Zabaykal’skiy Kray
Alatyr,54.8504,46.6,RU,Chuvashiya
Shilka,51.8706,116.0306,RU,Zabaykal’skiy Kray
Sherlovaya Gora,50.5306,116.3006,RU,Zabaykal’skiy Kray
Nerchinsk,52.009,116.5486,RU,Zabaykal’skiy Kray
Olovyannaya,50.95,115.5666,RU,Zabaykal’skiy Kray
Borzya,50.3886,116.5186,RU,Zabaykal’skiy Kray
Bugulma,54.5543,52.7943,RU,Tatarstan
Strezhevoy,60.7332,77.5777,RU,Tomskaya Oblast’
Nizhenvartovsk,60.935,76.58,RU,Khanty-Mansiyskiy Avtonomnyy Okrug-Yugra
Anzhero Sudzhensk,56.08,86.04,RU,Kemerovskaya Oblast’
Rayevskiy,54.0674,54.9269,RU,Bashkortostan
Chita,52.055,113.465,RU,Zabaykal’skiy Kray
Artemovskiy,57.3652,61.8698,RU,Sverdlovskaya Oblast’
Ryazan,54.62,39.72,RU,Ryazanskaya Oblast’
Bezhetsk,57.7647,36.69,RU,Tverskaya Oblast’
Novomoskovsk,54.09,38.22,RU,Tul’skaya Oblast’
Zheleznogorsk,52.3548,35.4044,RU,Kurskaya Oblast’
Alapayevsk,57.8465,61.6915,RU,Sverdlovskaya Oblast’
Starsy Oskol,51.3004,37.84,RU,Belgorodskaya Oblast’
Rostov,57.1892,39.4043,RU,Yaroslavskaya Oblast’
Gubkin,51.2743,37.3843,RU,Belgorodskaya Oblast’
Kumertau,52.7748,55.7843,RU,Bashkortostan
Oktyabrskiy,54.46,53.46,RU,Bashkortostan
Zheleznogorsk Ilimskiy,56.5762,104.1227,RU,Irkutskaya Oblast’
Noginsk,55.8704,38.48,RU,Moskovskaya Oblast’
Staraya Russa,57.9948,31.3544,RU,Novgorodskaya Oblast’
Tikhvin,59.6448,33.5144,RU,Leningradskaya Oblast’
Asbest,57.023,61.458,RU,Sverdlovskaya Oblast’
Yoshkar Ola,56.6354,47.8749,RU,Mariy-El
Ufa,54.79,56.04,RU,Bashkortostan
Krasnokamensk,50.0665,118.0265,RU,Zabaykal’skiy Kray
Orsk,51.21,58.6273,RU,Orenburgskaya Oblast’
Novotroitsk,51.2,58.33,RU,Orenburgskaya Oblast’
Bologoye,57.8722,34.0518,RU,Tverskaya Oblast’
Mikhaylovka,50.0679,43.2175,RU,Volgogradskaya Oblast’
Novozybkov,52.5348,31.9449,RU,Bryanskaya Oblast’
Chapayevsk,52.9743,49.7243,RU,Samarskaya Oblast’
Novokuybishevsk,53.12,49.9199,RU,Samarskaya Oblast’
Tavda,58.0537,65.2583,RU,Sverdlovskaya Oblast’
Michurinsk,52.9,40.5,RU,Tambovskaya Oblast’
Serov,59.615,60.585,RU,Sverdlovskaya Oblast’
Alekseyevka,50.6535,38.6931,RU,Belgorodskaya Oblast’
Valuyki,50.2091,38.0987,RU,Belgorodskaya Oblast’
Tuymazy,54.6048,53.6943,RU,Bashkortostan
Lgov,51.6948,35.2744,RU,Kurskaya Oblast’
Rybinsk,58.0503,38.82,RU,Yaroslavskaya Oblast’
Uglich,57.5244,38.33,RU,Yaroslavskaya Oblast’
Slantsy,59.1116,28.0747,RU,Leningradskaya Oblast’
Vyska,55.3247,42.1644,RU,Nizhegorodskaya Oblast’
Armavir,45.0004,41.13,RU,Krasnodarskiy Kray
Stavropol,45.05,41.98,RU,Stavropol’skiy Kray
Bryansk,53.26,34.43,RU,Bryanskaya Oblast’
Kropotkin,45.4471,40.5821,RU,Krasnodarskiy Kray
Shchekino,54.0143,37.5143,RU,Tul’skaya Oblast’
Derbent,42.0578,48.2774,RU,Dagestan
Nikolayevsk,50.0161,45.4261,RU,Volgogradskaya Oblast’
Tula,54.2,37.6299,RU,Tul’skaya Oblast’
Murom,55.5704,42.04,RU,Vladimirskaya Oblast’
Plast,54.3685,60.8085,RU,Chelyabinskaya Oblast’
Kamyshin,50.0804,45.4,RU,Volgogradskaya Oblast’
Syzran,53.17,48.48,RU,Samarskaya Oblast’
Kuznetsk,53.1204,46.6,RU,Penzenskaya Oblast’
Gelendzhik,44.5748,38.0644,RU,Krasnodarskiy Kray
Sharya,58.3798,45.5094,RU,Kostromskaya Oblast’
Murmansk,68.97,33.1,RU,Murmanskaya Oblast’
Isikul,54.9287,71.2682,RU,Omskaya Oblast’
Frolovo,49.7722,43.6518,RU,Volgogradskaya Oblast’
Severomorsk,69.0731,33.4231,RU,Murmanskaya Oblast’
Dzerzhinsk,56.2504,43.46,RU,Nizhegorodskaya Oblast’
Yalutorovsk,56.6736,66.2983,RU,Tyumenskaya Oblast’
Uryupinsk,50.7734,42.0031,RU,Volgogradskaya Oblast’
Golyshmanovo,56.3819,68.3715,RU,Tyumenskaya Oblast’
Nazyvayevsk,55.567,71.35,RU,Omskaya Oblast’
Tatarsk,55.2219,75.9665,RU,Novosibirskaya Oblast’
Sarapul,56.4791,53.7987,RU,Udmurtiya
Tayshet,55.9277,97.9877,RU,Irkutskaya Oblast’
Nevinnomyssk,44.6201,41.95,RU,Stavropol’skiy Kray
Velikiye Luki,56.32,30.52,RU,Pskovskaya Oblast’
Nizhnekamsk,55.6404,51.82,RU,Tatarstan
Kirov,54.0852,34.3048,RU,Kaluzhskaya Oblast’
Dyatkovo,53.5891,34.3392,RU,Bryanskaya Oblast’
Tara,56.8982,74.3782,RU,Omskaya Oblast’
Borisoglebsk,51.3687,42.0887,RU,Voronezhskaya Oblast’
Klintsy,52.7652,32.2448,RU,Bryanskaya Oblast’
Mozhga,56.4548,52.1843,RU,Udmurtiya
Rzhev,56.2574,34.3275,RU,Tverskaya Oblast’
Naberezhnyye Chelny,55.7,52.3199,RU,Tatarstan
Vichuga,57.2191,41.9287,RU,Ivanovskaya Oblast’
Mtsensk,53.2647,36.5472,RU,Orlovskaya Oblast’
Kanash,55.5091,47.4687,RU,Chuvashiya
Topki,55.2802,85.6108,RU,Kemerovskaya Oblast’
Shuya,56.8543,41.3643,RU,Ivanovskaya Oblast’
Torzhok,57.0291,34.9787,RU,Tverskaya Oblast’
Biryusinsk,55.9607,97.8144,RU,Irkutskaya Oblast’
Otradnyy,53.3778,51.3474,RU,Samarskaya Oblast’
Serpukhov,54.9304,37.43,RU,Moskovskaya Oblast’
Balakovo,52.03,47.8,RU,Saratovskaya Oblast’
Atkarsk,51.8765,44.9961,RU,Saratovskaya Oblast’
Kirovo-Chepetsk,58.5544,50.0444,RU,Kirovskaya Oblast’
Kirov,58.5901,49.67,RU,Kirovskaya Oblast’
Serdobsk,52.4622,44.2218,RU,Penzenskaya Oblast’
Aleksin,54.5143,37.0944,RU,Tul’skaya Oblast’
Shumerlya,55.4848,46.4244,RU,Chuvashiya
Yefremov,53.1491,38.1215,RU,Tul’skaya Oblast’
Buynaksk,42.8335,47.113,RU,Dagestan
Kaspiysk,42.8747,47.6244,RU,Dagestan
Makhachkala,42.98,47.5,RU,Dagestan
Yaroslavl,57.62,39.87,RU,Yaroslavskaya Oblast’
Sovetsk,57.5785,48.9581,RU,Kirovskaya Oblast’
Salavat,53.3703,55.93,RU,Bashkortostan
Sterlitamak,53.63,55.96,RU,Bashkortostan
Bogoroditsk,53.7747,38.1144,RU,Tul’skaya Oblast’
Morshansk,53.4547,41.8044,RU,Tambovskaya Oblast’
Obninsk,55.0804,36.62,RU,Kaluzhskaya Oblast’
Georgievsk,44.1599,43.4699,RU,Stavropol’skiy Kray
Sol-lletsk,51.1603,54.9999,RU,Orenburgskaya Oblast’
Vladimir,56.13,40.4099,RU,Vladimirskaya Oblast’
Pechora,65.1587,57.2087,RU,Komi
Ulyanovsk,54.33,48.41,RU,Ul’yanovskaya Oblast’
Kirsanov,52.6574,42.7174,RU,Tambovskaya Oblast’
Kotovsk,52.5947,41.5044,RU,Tambovskaya Oblast’
Tambov,52.73,41.43,RU,Tambovskaya Oblast’
Volkhov,59.9291,32.3387,RU,Leningradskaya Oblast’
Vyshnniy Volochek,57.583,34.5631,RU,Tverskaya Oblast’
Orel,52.97,36.07,RU,Orlovskaya Oblast’
Kandalaksha,67.1643,32.4144,RU,Murmanskaya Oblast’
Ussuriysk,43.8,132.02,RU,Primorskiy Kray
Petrozavodsk,61.85,34.28,RU,Kareliya
Votkinsk,57.0304,53.99,RU,Udmurtiya
Omutninsk,58.6589,52.1592,RU,Kirovskaya Oblast’
Novoaltaysk,53.3993,83.9588,RU,Altayskiy Kray
Ust' Ordynskiy,52.833,104.7,RU,Irkutskaya Oblast’
Kirs,59.3138,52.2452,RU,Kirovskaya Oblast’
Kondopoga,62.2087,34.2887,RU,Kareliya
Ruzayevka,54.0643,44.9244,RU,Mordoviya
Tver,56.86,35.89,RU,Tverskaya Oblast’
Kotelnich,58.3041,48.3137,RU,Kirovskaya Oblast’
Kaliningrad,54.7,20.4973,RU,Kaliningradskaya Oblast’
Perm',58.0174,56.2855,RU,Permskiy Kray
Penza,53.18,45,RU,Penzenskaya Oblast’
Velikiy Ustyug,60.7687,46.2987,RU,Vologodskaya Oblast’
Aleysk,52.4918,82.7777,RU,Altayskiy Kray
Balakhna,56.4943,43.5944,RU,Nizhegorodskaya Oblast’
Podolsk,55.3804,37.5299,RU,Moskovskaya Oblast’
Kineshma,57.47,42.13,RU,Ivanovskaya Oblast’
Yegoryevsk,55.3848,39.0294,RU,Moskovskaya Oblast’
Volzhskiy,48.7948,44.7744,RU,Volgogradskaya Oblast’
Volgograd,48.71,44.5,RU,Volgogradskaya Oblast’
Onega,63.9271,38.0771,RU,Arkhangel’skaya Oblast’
Cherepanovo,54.2336,83.3688,RU,Novosibirskaya Oblast’
Apatity,67.5731,33.393,RU,Murmanskaya Oblast’
Umba,66.6814,34.3455,RU,Murmanskaya Oblast’
Kovda,66.6903,32.8702,RU,Murmanskaya Oblast’
Kirovsk,67.6091,33.6687,RU,Murmanskaya Oblast’
Iskitim,54.6509,83.2865,RU,Novosibirskaya Oblast’
Belgorod,50.63,36.5999,RU,Belgorodskaya Oblast’
Taganrog,47.23,38.92,RU,Rostovskaya Oblast’
Velsk,61.0674,42.0974,RU,Arkhangel’skaya Oblast’
Sasovo,54.3491,41.9087,RU,Ryazanskaya Oblast’
Voronezh,51.73,39.27,RU,Voronezhskaya Oblast’
Syktyvkar,61.66,50.82,RU,Komi
Krasnoufimsk,56.5991,57.7586,RU,Sverdlovskaya Oblast’
Lipetsk,52.62,39.64,RU,Lipetskaya Oblast’
Yelets,52.58,38.5,RU,Lipetskaya Oblast’
Ust Kut,56.765,105.76,RU,Irkutskaya Oblast’
Magnitogorsk,53.4227,58.98,RU,Chelyabinskaya Oblast’
Gryazi,52.4948,39.9343,RU,Lipetskaya Oblast’
Kazan,55.7499,49.1263,RU,Tatarstan
Arzamas,55.4,43.8,RU,Nizhegorodskaya Oblast’
Buy,58.4847,41.5244,RU,Kostromskaya Oblast’
Kostroma,57.77,40.94,RU,Kostromskaya Oblast’
Zelenodolsk,55.8406,48.655,RU,Tatarstan
Nizhneudinsk,54.8977,99.0277,RU,Irkutskaya Oblast’
Chistopol,55.3648,50.6407,RU,Tatarstan
Perm,58,56.25,RU,Permskiy Kray
Nizhny Tagil,57.92,59.975,RU,Sverdlovskaya Oblast’
Kem,64.9536,34.5684,RU,Kareliya
Belomorsk,64.5252,34.7658,RU,Kareliya
Ob,54.998,82.7077,RU,Novosibirskaya Oblast’
Novosibirsk,55.03,82.96,RU,Novosibirskaya Oblast’
Cherkessk,44.2904,42.06,RU,Karachayevo-Cherkesiya
Livny,52.4248,37.6044,RU,Orlovskaya Oblast’
Sibay,52.7091,58.6387,RU,Bashkortostan
Kursk,51.74,36.19,RU,Kurskaya Oblast’
Verkhnyaya Salda,58.0502,60.5498,RU,Sverdlovskaya Oblast’
Naryan Mar,67.6474,53.0574,RU,Nenetskiy Avtonomnyy Okrug
Kyshtym,55.7,60.5595,RU,Chelyabinskaya Oblast’
Krasnouralsk,58.3515,60.0515,RU,Sverdlovskaya Oblast’
Almetyevsk,54.9004,52.3199,RU,Tatarstan
Archangel,64.575,40.545,RU,Arkhangel’skaya Oblast’
Verkhniy Ufaley,56.0663,60.2313,RU,Chelyabinskaya Oblast’
Chusovoy,58.2934,57.813,RU,Permskiy Kray
Nikel,69.4126,30.2188,RU,Murmanskaya Oblast’
Zlatoust,55.175,59.65,RU,Chelyabinskaya Oblast’
Nevyansk,57.4902,60.2148,RU,Sverdlovskaya Oblast’
Sochi,43.59,39.73,RU,Krasnodarskiy Kray
Novoshakhtinsk,47.77,39.92,RU,Rostovskaya Oblast’
Bugrino,68.8079,49.3042,RU,Nenetskiy Avtonomnyy Okrug
Shakhty,47.7204,40.27,RU,Rostovskaya Oblast’
Bataysk,47.1368,39.7449,RU,Rostovskaya Oblast’
Astrakhan,46.3487,48.055,RU,Astrakhanskaya Oblast’
Kotlas,61.2631,46.6631,RU,Arkhangel’skaya Oblast’
Indiga,67.6898,49.0166,RU,Nenetskiy Avtonomnyy Okrug
Severouralsk,60.1565,59.9615,RU,Sverdlovskaya Oblast’
Akhtubinsk,48.2787,46.1687,RU,Astrakhanskaya Oblast’
Shoyna,67.8666,44.1334,RU,Nenetskiy Avtonomnyy Okrug
Sosnogorsk,63.5948,53.8943,RU,Komi
Shebekino,50.4144,36.8944,RU,Belgorodskaya Oblast’
Ukhta,63.56,53.69,RU,Komi
Yemanzhelinsk,54.7489,61.2935,RU,Chelyabinskaya Oblast’
Bakal,54.9459,58.7959,RU,Chelyabinskaya Oblast’
Troitsk,54.1056,61.5702,RU,Chelyabinskaya Oblast’
Yekaterinburg,56.85,60.6,RU,Sverdlovskaya Oblast’
Segezha,63.7548,34.3243,RU,Kareliya
Kamensk Uralskiy,56.4205,61.935,RU,Sverdlovskaya Oblast’
Karpinsk,59.7602,60.0098,RU,Sverdlovskaya Oblast’
Usinsk,65.923,57.403,RU,Komi
Kudymkar,59.0162,54.633,RU,Permskiy Kray
Vikhorevka,56.0931,101.2427,RU,Irkutskaya Oblast’
Bratsk,56.157,101.615,RU,Irkutskaya Oblast’
Glazov,58.1232,52.6288,RU,Udmurtiya
Solikamsk,59.67,56.75,RU,Permskiy Kray
Severodvinsk,64.57,39.83,RU,Arkhangel’skaya Oblast’
Mednogorsk,51.4191,57.5787,RU,Orenburgskaya Oblast’
Gay,51.4747,58.4543,RU,Orenburgskaya Oblast’
Dombarovskiy,50.7546,59.54,RU,Orenburgskaya Oblast’
Kungur,57.4348,56.9543,RU,Permskiy Kray
Gubakha,58.8691,57.5887,RU,Permskiy Kray
Kurgan,55.46,65.345,RU,Kurganskaya Oblast’
Ust-Ulimsk,57.99,102.6333,RU,Irkutskaya Oblast’
Slobodskoy,58.7185,50.188,RU,Kirovskaya Oblast’
Kizel,59.0644,57.6343,RU,Permskiy Kray
Leninogorsk,54.5987,52.4487,RU,Tatarstan
Rostov,47.2346,39.7127,RU,Rostovskaya Oblast’
Orekhovo-Zuevo,55.82,38.98,RU,Moskovskaya Oblast’
Buguruslan,53.663,52.433,RU,Orenburgskaya Oblast’
Turukhansk,65.8382,87.955,RU,Krasnoyarskiy Kray
Zmeinogorsk,51.1571,82.195,RU,Altayskiy Kray
Ulan Ude,51.825,107.625,RU,Buryatiya
Teli,51.0333,90.2333,RU,Tyva
Asino,56.9931,86.1627,RU,Tomskaya Oblast’
Vladivostok,43.13,131.91,RU,Primorskiy Kray
Shadrinsk,56.0837,63.6333,RU,Kurganskaya Oblast’
Vorontsovo,71.6983,83.5642,RU,Krasnoyarskiy Kray
Kyzyl,51.7067,94.3831,RU,Tyva
Tazovskiy,67.4667,78.7,RU,Yamalo-Nenetskiy Avtonomnyy Okrug
Magas,43.1667,44.8,RU,Ingushetiya
Nazran,43.233,44.783,RU,Ingushetiya
Groznyy,43.3187,45.6987,RU,Chechnya
Krasnokamsk,58.0747,55.7443,RU,Permskiy Kray
Asha,54.998,57.2726,RU,Chelyabinskaya Oblast’
Berezniki,59.42,56.76,RU,Permskiy Kray
Nelidovo,56.2235,32.7731,RU,Tverskaya Oblast’
Ivanovo,57.01,41.01,RU,Ivanovskaya Oblast’
Sergiyev Posad,56.33,38.17,RU,Moskovskaya Oblast’
Tolyatti,53.4804,49.53,RU,Samarskaya Oblast’
Uelen,66.1541,-169.8106,RU,Chukotskiy Avtonomnyy Okrug
Skovorodino,53.9833,123.9167,RU,Amurskaya Oblast’
Kyakhta,50.3527,106.4527,RU,Buryatiya
Zvezdnyy,70.9566,-179.59,RU,Chukotskiy Avtonomnyy Okrug
Dalnerechensk,45.9273,133.7223,RU,Primorskiy Kray
Bikin,46.8203,134.2649,RU,Khabarovskiy Kray
Magdagachi,53.45,125.8,RU,Amurskaya Oblast’
Shimanovsk,52.0024,127.6975,RU,Amurskaya Oblast’
Zeya,53.75,127.2666,RU,Amurskaya Oblast’
Neftekamsk,56.0835,54.2631,RU,Bashkortostan
Nordvik,74.0165,111.51,RU,Krasnoyarskiy Kray
Khatanga,72.0411,102.465,RU,Krasnoyarskiy Kray
Agapa,71.4504,89.25,RU,Krasnoyarskiy Kray
Yessey,68.4837,102.1666,RU,Krasnoyarskiy Kray
Nakhodka,42.8374,132.8874,RU,Primorskiy Kray
Partizansk,43.1349,133.1349,RU,Primorskiy Kray
Kodinskiy,58.6981,99.1777,RU,Krasnoyarskiy Kray
Khabarovsk,48.455,135.12,RU,Khabarovskiy Kray
Boyarka,70.767,97.5,RU,Krasnoyarskiy Kray
Savetskaya Gavan,48.9699,140.2749,RU,Khabarovskiy Kray
Uyar,55.8104,94.3153,RU,Krasnoyarskiy Kray
Bogotol,56.2165,89.5184,RU,Krasnoyarskiy Kray
Lesosibirsk,58.2433,92.4833,RU,Krasnoyarskiy Kray
Noginsk,64.4833,91.2333,RU,Krasnoyarskiy Kray
Artemovsk,54.3487,93.4355,RU,Krasnoyarskiy Kray
Podkamennaya,61.5995,90.1236,RU,Krasnoyarskiy Kray
Dikson,73.507,80.5451,RU,Krasnoyarskiy Kray
Igarka,67.4671,86.5833,RU,Krasnoyarskiy Kray
Komsa,61.868,89.2577,RU,Krasnoyarskiy Kray
Kansk,56.19,95.71,RU,Krasnoyarskiy Kray
Arsenyev,44.1623,133.2823,RU,Primorskiy Kray
Starorybnoye,72.7666,104.8,RU,Krasnoyarskiy Kray
Zaozernyy,55.962,94.7028,RU,Krasnoyarskiy Kray
Achinsk,56.27,90.5,RU,Krasnoyarskiy Kray
Omolon,65.25,160.5,RU,Chukotskiy Avtonomnyy Okrug
Pevek,69.7008,170.3133,RU,Chukotskiy Avtonomnyy Okrug
Mikhalkino,69.4244,161.4811,RU,Sakha (Yakutiya)
Lesozavodsk,45.4748,133.4298,RU,Primorskiy Kray
Pokrovsk,61.4934,129.1272,RU,Sakha (Yakutiya)
Olyokminsk,60.5032,120.3926,RU,Sakha (Yakutiya)
Svobodnyy,51.4062,128.1312,RU,Amurskaya Oblast’
Omsukchan,62.5333,155.8,RU,Magadanskaya Oblast’
Tynda,55.1743,124.7076,RU,Amurskaya Oblast’
Omchak,61.6333,147.9167,RU,Magadanskaya Oblast’
Progress,49.7504,129.6167,RU,Amurskaya Oblast’
Belogorsk,50.9191,128.4637,RU,Amurskaya Oblast’
Susuman,62.7833,148.1668,RU,Magadanskaya Oblast’
Amursk,50.2228,136.8974,RU,Khabarovskiy Kray
Kavalerovo,44.2702,135.0498,RU,Primorskiy Kray
Dalnegorsk,44.5372,135.5172,RU,Primorskiy Kray
Ishim,56.1502,69.4498,RU,Tyumenskaya Oblast’
Yakutsk,62.035,129.735,RU,Sakha (Yakutiya)
Kamenna Obi,53.7936,81.3388,RU,Altayskiy Kray
Severobaykalsk,55.634,109.313,RU,Buryatiya
Trofimovsk,72.5997,127.0337,RU,Sakha (Yakutiya)
Novorossiysk,44.73,37.7699,RU,Krasnodarskiy Kray
Inta,66.0374,60.1674,RU,Komi
Gyda,70.8814,78.4661,RU,Yamalo-Nenetskiy Avtonomnyy Okrug
Uray,60.1401,64.7548,RU,Khanty-Mansiyskiy Avtonomnyy Okrug-Yugra
Tobolsk,58.1998,68.2648,RU,Tyumenskaya Oblast’
Suntar,62.1444,117.6319,RU,Sakha (Yakutiya)
Vorkuta,67.5,64.01,RU,Komi
Uzhur,55.3292,89.8207,RU,Krasnoyarskiy Kray
Bilibino,68.0504,166.3333,RU,Chukotskiy Avtonomnyy Okrug
Tiksi,71.6269,128.835,RU,Sakha (Yakutiya)
Beringovskiy,63.0655,179.3067,RU,Chukotskiy Avtonomnyy Okrug
Okha,53.5739,142.9479,RU,Sakhalinskaya Oblast’
Nogliki,51.8333,143.1667,RU,Sakhalinskaya Oblast’
Ambarchik,69.651,162.3336,RU,Sakha (Yakutiya)
Spassk Dalniy,44.6002,132.8198,RU,Primorskiy Kray
Komsomolsk na Amure,50.555,137.02,RU,Khabarovskiy Kray
Ust Kamchatsk,56.2135,162.435,RU,Kamchatskiy Kray
Sagastyr,73.3779,126.5924,RU,Sakha (Yakutiya)
Birobidzhan,48.7974,132.9508,RU,Yevreyskaya Avtonomnaya Oblast’
Obluchye,49,131.0833,RU,Yevreyskaya Avtonomnaya Oblast’
Manily,62.55,165.3,RU,Kamchatskiy Kray
Cherskiy,68.7501,161.33,RU,Sakha (Yakutiya)
Bol'sheretsk,52.439,156.3594,RU,Kamchatskiy Kray
Oktyabrskiy,52.6636,156.2387,RU,Kamchatskiy Kray
Chegdomyn,51.1178,133.0241,RU,Khabarovskiy Kray
Evensk,61.95,159.2333,RU,Magadanskaya Oblast’
Utkholok,57.5504,157.2333,RU,Kamchatskiy Kray
Karamken,60.2004,151.1666,RU,Magadanskaya Oblast’
Kartaly,53.0474,60.6819,RU,Chelyabinskaya Oblast’
Siglan,59.0337,152.4166,RU,Magadanskaya Oblast’
Ust Nera,64.5666,143.2,RU,Sakha (Yakutiya)
Pakhachi,60.5816,169.05,RU,Kamchatskiy Kray
Nakhodka,67.7504,77.52,RU,Yamalo-Nenetskiy Avtonomnyy Okrug
Magadan,59.575,150.81,RU,Magadanskaya Oblast’
Menkere,67.9886,123.3505,RU,Sakha (Yakutiya)
Strelka,61.867,152.2502,RU,Magadanskaya Oblast’
Tunguskhaya,64.9004,125.25,RU,Sakha (Yakutiya)
Sangar,63.9241,127.4739,RU,Sakha (Yakutiya)
Terbyas,64.3761,120.5469,RU,Sakha (Yakutiya)
